lon,lat,count,name,country
27.142826,38.423734,35,İzmir; Turkey,Turkey
-122.3084023,47.6508882,122,WA 98195; USA,United States
-86.80411509999999,36.1489935,64,TN 37235; USA,United States
-106.7455792,32.2777551,17,NM 88003; USA,United States
-77.8599084,40.7982133,7,The Pennsylvania State University; USA,United States
-111.6502622,40.2524308,8,UT 84602; USA,United States
-71.1002881,42.3476181,42,MA 02215; USA,United States
-119.3714909,34.5125711,5,CA 93023; USA,United States
10.2027261,56.1460465,955,DK-8000 Aarhus C; Denmark,Denmark
-2.7073842,53.7613383,63,Preston PR1 2HE; UK,United Kingdom
-8.6393579,41.1502012,16,P-4150-762 Porto; Portugal,Portugal
-157.8152491,21.3175493,202,HI 96822; USA,United States
-118.1247032,34.1378866,521,CA 91125; USA,United States
79.8587938,6.9000149,2,University of Colombo 00300; Sri Lanka,Sri Lanka
127.3845475,36.3504119,1,Daejeon 34134; Republic of Korea,South Korea
139.7600967,35.7088306,103,Tokyo 113-0033; Japan,Japan
-115.2837585,30.8406338,1,B.C.; Mexico,Mexico
-2.2737212,53.0030511,39,Staffordshire ST5 5BG; UK,United Kingdom
-5.9353941,54.5838653,40,Belfast BT7 1NN; UK,United Kingdom
79.8912813,6.788070599999999,1,0272 Moratuwa; Sri Lanka,Sri Lanka
-70.39750219999999,-23.6509279,6,Antofagasta; Chile,Chile
-119.848947,34.4139629,11,CA 93106-9530; USA,United States
12.5683372,55.6760968,60,DK-1350 Copenhagen; Denmark,Denmark
-2.8074837,56.3401503,19,St Andrews KY16 9SS; UK,United Kingdom
109.2196634,13.7829673,1,590-000 Quy Nhon; Socialist Republic of Vietnam,Vietnam
-1.9317168,52.4511304,214,Birmingham B15 2TT; UK,United Kingdom
-8.629105299999999,41.1579438,7,P-4169-007 Porto; Portugal,Portugal
-71.1032591,42.36475590000001,289,MA 02139; USA,United States
-97.73488049999999,30.2835151,9,Austin; TX 78712,United States
11.7363208,55.6079865,10,DK-4340 Tølløse; Denmark,Denmark
-1.2595799,51.7596645,48,OX1 3RH; UK,United Kingdom
-74.6568772,40.3467174,131,NJ 08544; USA,United States
-122.1277465,47.55770769999999,7,WA 98006; USA,United States
-122.1492224,48.0563616,7,WA 98270; USA,United States
-71.13891009999999,42.3803274,969,MA 02138; USA,United States
-122.0525,37.41752,1500,CA 94035; USA,United States
-79.0581498,35.905249,51,NC 27599-3255; USA,United States
-39.3206241,-5.4983977,7,Ceará; Brazil,Brazil
-36.954107,-5.402580299999999,1,Rio Grande do Norte; Brazil,Brazil
-77.1945247,41.2033216,5,PA 68505-080; Brazil,United States
-36.954107,-5.402580299999999,38,RN; Brazil,Brazil
-87.603826,41.7805099,77,IL 60637; USA,United States
-76.48305789999999,42.4467049,23,NY 14853; USA,United States
10.2027261,56.1460465,238,Aarhus C; Denmark,Denmark
2.23847,48.812995,132,Meudon; France,France
4.4970097,52.1601144,35,Leiden; The Netherlands,Netherlands
144.960974,-37.7983459,1,ARC Centre of Excellence for All Sky Astrophysics in 3 Dimensions (ASTRO 3D); Australia,Australia
11.8767611,45.4064349,58,Padova; Italy,Italy
2.1734035,41.3850639,38,Barcelona; Spain,Spain
-1.9317168,52.4511304,130,B15 2TT; UK,United Kingdom
18.4687792,-33.9382014,1,Observatory; South Africa,South Africa
151.1126498,-33.77382370000001,3,2109; Australia,Australia
4.7005176,50.8798438,208,Leuven; Belgium,Belgium
4.3517211,50.8503463,1,Bruxelles; Belgium,Belgium
5.842828099999999,51.8448837,40,Nijmegen; The Netherlands,Netherlands
8.8250576,45.82059890000001,1,Varese; Italy,Italy
13.3614868,38.11569,29,Palermo; Italy,Italy
9.4065471,45.6983647,3,Merate (LC); Italy,Italy
9.0576448,48.5216364,9,Tübingen; Germany,Germany
9.189982,45.4642035,10,Milano; Italy,Italy
9.1582069,45.1847248,1,Pavia; Italy,Italy
9.915803499999999,51.54128040000001,105,Göttingen; Germany,Germany
12.0206589,57.4134952,1,Onsala; Sweden.,Sweden
13.404954,52.52000659999999,91,Berlin; Germany,Germany
13.1910073,55.7046601,11,Lund; Sweden,Sweden
11.7158452,50.9910636,36,Tautenburg; Germany,Germany
-16.6291304,28.2915637,473,Tenerife; Spain,Spain
12.0206589,57.4134952,12,Onsala; Sweden,Sweden
7.686864,45.0703393,25,Torino; Italy,Italy
139.7600967,35.7088306,24,113-0033; Japan,Japan
-97.73488049999999,30.2835151,21,78712; USA,United States
139.6503106,35.6761919,1,Tokio; Japan,Japan
6.9602786,50.937531,24,Köln; Germany,Germany
-83.01733860000002,39.9990626,15,43210; USA,United States
-74.6568772,40.3467174,16,08544; USA,United States
15.439504,47.070714,23,Graz; Austria,Austria
-72.65313139999999,41.558762,4,06459; USA,United States
-71.1032591,42.36475590000001,17,02139; USA,United States
139.5361196,35.6753711,17,181-8588; Japan,Japan
14.7842104,49.9046168,4,Ondřejov; Czech Republic,Czechia
16.6068371,49.1950602,6,Brno; Czech Republic,Czechia
14.4378005,50.0755381,1,Prague; Czech Republic,Czechia
-76.48305789999999,42.4467049,1,14853; USA,United States
4.457939,52.1683673,7,CA Leiden; The Netherlands,Netherlands
2.134078,48.701844,69,Gif-sur-Yvette Cedex; France,France
-43.2253949,-22.894884,4,20921-400; Brazil,Brazil
13.0644729,52.3905689,63,Potsdam; Germany,Germany
-1.890401,52.48624299999999,4,Birmingham; UK,United Kingdom
34.8071159,31.8937669,5,76100; Israel,Israel
10.7522454,59.9138688,2,0315 Oslo; Norway,Norway
-122.3084023,47.6508882,7,98195; USA,United States
-122.3497446,47.6152474,1,98121; USA,United States
5.36978,43.296482,186,Marseille; France,France
-5.9353941,54.5838653,13,BT7 1NN; UK,United Kingdom
23.7275388,37.9838096,10,Athens; Greece,Greece
1.444209,43.604652,61,Toulouse; France,France
-73.5436479,45.50232,9,H3C 3J7; Canada,Canada
-77.8638835,40.8084075,148,PA 16802; USA,United States
-71.61268849999999,-33.047238,16,Valparaíso; Chile,Chile
-77.8638835,40.8084075,3,University Park PA 16802; USA,United States
-73.9800645,40.74727,1,New York NY 10016; USA,United States
-74.6568772,40.3467174,3,Princeton NJ 08544; USA,United States
-73.96243270000001,40.8138912,56,NY 10027; USA,United States
-155.2382164,19.7031566,32,HI 96720-2700; USA,United States
-97.73488049999999,30.2835151,273,TX 78712; USA,United States
-118.1386005,34.1427587,45,CA 91101; USA,United States
-122.2594606,37.87015100000001,59,CA 94720-3411; USA,United States
-83.624201,41.6735366,3,OH 43606; USA,United States
-118.1528623,34.1561783,107,CA 91109; USA,United States
-77.623931,43.1318593,15,NY 14627; USA,United States
-122.2594606,37.87015100000001,322,CA 94720; USA,United States
-3.5359678,50.7383554,8,Exeter EX4 4QL; UK,United Kingdom
-78.68194489999999,35.7850545,3,NC 27695; USA,United States
-76.8632581,38.9916589,103,MD 20771; USA,United States
-72.2889045,43.70195830000001,6,NH 03755; USA,United States
-105.2889726,40.0103247,10,CO 80309; USA,United States
-79.01929969999999,35.7595731,4,NC; USA,United States
-76.64127119999999,39.0457549,22,MD; USA,United States
-84.3883717,33.755711,10,GA 30303; USA,United States
-86.2412543,41.7043332,36,IN 46556; USA,United States
-117.0125641,46.7258512,6,ID 83844; USA,United States
-89.42692869999999,43.1054334,16,WI 53706; USA,United States
-104.8162784,38.8413423,1,CO 80903; USA,United States
139.5361196,35.6753711,95,Tokyo 181-8588; Japan,Japan
106.6720665,26.4292187,2,Guiyang 550025; People’s Republic of China,China
102.7186974,25.0266546,1,Kunming 650011; People’s Republic of China,China
116.4541469,40.0192499,2,Beijing 100012; People’s Republic of China,China
-86.1700894,39.82060620000001,2,IN 46208; USA,United States
116.3700367,39.9586544,1,100875; People’s Republic of China,China
12.9965755,52.4699198,3,D-14476 Potsdam; Germany,Germany
119.0267338,32.163948,9,Nanjing 210023; China,China
-110.9488008,32.2332841,80,AZ 85721; USA,United States
76.8512485,43.2220146,3,050020 Almaty; Kazakhstan,Kazakhstan
0.0951918,52.21409269999999,57,Cambridge CB3 0HA; UK,United Kingdom
14.7734546,49.930923,8,CZ-25165 Ondřejov; Czech Republic,Czechia
16.6068371,49.1950602,3,CZ-61137 Brno; Czech Republic,Czechia
21.1897739,48.753595,2,Košice 04001; Slovak Republic,Slovakia
20.2822798,49.16449919999999,6,05960 Tatranská Lomnica; Slovak Republic,Slovakia
14.4500077,50.1152199,1,CZ-18000 Praha 8 V Holešovičkách 2; Czech Republic,Czechia
11.7158452,50.9910636,32,D-07778 Tautenburg; Germany,Germany
17.8987782,49.940178,1,74601 Opava; Czech Republic,Czechia
-83.01733860000002,39.9990626,159,OH 43210; USA,United States
18.964741,47.500313,40,Konkoly Thege Miklós út 15-17; Hungary,Hungary
25.2522396,54.6829208,1,03100 Vilnius; Lithuania,Lithuania
-71.2519374,-29.9026691,28,La Serena; Chile,Chile
-122.3084023,47.6508882,2,Seattle WA 98195; USA,United States
19.9042597,50.0765798,5,30-084 Kraków; Polska,Poland
-17.766582,28.6392029,4,38711 Breña Baja; Spain,Spain
-6.6507152,54.3528282,28,Armagh BT61 9DG; UK,United Kingdom
-93.28257029999999,37.1960443,61,MO 65897; USA,United States
12.9573975,52.40383809999999,3,Golm; Germany,Germany
-71.61268849999999,-33.047238,5,Valparaíso 2360102; Chile,Chile
148.7831534,-35.4477412,88,ACT 2611; Australia,Australia
-80.5431505,43.4715646,1,N2L 3G1; Canada,Canada
-73.5758676,45.5057018,1,H3A 0E8; Canada,Canada
-73.5752899,45.5056166,1,QC H3A 2A7; Canada,Canada
11.7158452,50.9910636,15,07778 Tautenburg; Germany,Germany
6.9602786,50.937531,2,Cologne; Germany,Germany
16.6068371,49.1950602,2,61137 Brno; Czech Republic,Czechia
7.769664400000001,45.0445643,43,Pino Torinese; Italy,Italy
-71.61268849999999,-33.047238,2,Valparaiso; Chile,Chile
-17.766582,28.6392029,20,E-38711 Breña Baja; Spain,Spain
10.8808637,49.8729118,7,D-96049 Bamberg; Germany,Germany
23.3877614,42.65626049999999,16,Sofia 1784; Bulgaria,Bulgaria
26.4105364,40.10037030000001,1,Çanakkale 17100; Turkey,Turkey
-0.472545,51.533116,1,Uxbridge UB8 3PH; UK,United Kingdom
-0.2408138,51.6137221,2,NW7 2QS; UK,United Kingdom
-105.3716684,40.038629,22,CO 80302; USA,United States
-76.6008334,39.3322127,148,MD 21218; USA,United States
-122.0781663,37.4062237,341,CA 94043; USA,United States
21.0122287,52.2296756,3,Warszawa; Poland,Poland
-76.8632581,38.9916589,6,20771; USA,United States
-122.6420207,38.235501,1,94952; USA,United States
11.1709899,50.3601821,4,Sonneberg; Germany,Germany
19.9449799,50.06465009999999,4,Cracow; Poland,Poland
19.9449799,50.06465009999999,3,Krakow; Poland,Poland
146.921099,-31.2532183,2,New South Wales; Australia,Australia
-58.3815591,-34.6036844,11,Buenos Aires; Argentina,Argentina
-46.7329875,-23.559858,4,SP 05508-090; Brazil,Brazil
-8.629105299999999,41.1579438,136,Porto; Portugal,Portugal
2.134078,48.701844,75,Gif-sur-Yvette; France,France
117.9249002,30.6006773,1,Anhui 230026; People's Republic of China,China
-84.3811458,33.7700012,3,GA 30332; USA,United States
-117.072053,32.7759882,1,San Diego CA 92182; USA,United States
115.9083631,-32.0058457,3,WA 6102; Australia,Australia
37.6172999,55.755826,83,Moscow; Russia,Russia
-71.13891009999999,42.3803274,48,02138; USA,United States
41.480843,43.6027053,2,369167; Russia,Russia
15.4828065,47.0505635,20,A-8042 Graz; Austria,Austria
92.78857370000001,56.01862819999999,1,660041 Krasnoyarsk; Russian Federation,Russia
16.3191645,48.2358641,54,A-1180 Vienna; Austria,Austria
15.454803,47.0743531,7,A-8010 Graz; Austria,Austria
-72.9310217,41.3064267,4,06520; USA,United States
15.0586639,37.5267674,55,I-95123 Catania; Italy,Italy
126.9779692,37.566535,2,Seoul 03760; Republic of Korea,South Korea
126.9779692,37.566535,1,Seoul 03722; Republic of Korea,South Korea
-72.9283391,41.3212912,99,CT 06511; USA,United States
-122.3084023,47.6508882,12,WA 98195-1580; USA,United States
12.5113741,55.7841732,5,DK-2800 Kgs. Lyngby; Denmark,Denmark
151.9533185,-27.5564884,4,QLD 4350; Australia,Australia
139.7609321,35.7109562,1,Tokyo 113-8654; Japan,Japan
-1.5649432,52.3860241,201,Coventry CV4 7AL; UK,United Kingdom
-86.2372857,41.6993845,1,Department of Electrical Engineering; Brazil,United States
-99.9018131,41.4925374,1,NE; USA,United States
8.541694,47.3768866,6,Zürich; Switzerland,Switzerland
-95.3698028,29.7604267,1,Houston; Texas,United States
7.6261347,51.9606649,4,Münster; Germany,Germany
4.8945398,52.3666969,18,Amsterdam; The Netherlands,Netherlands
151.2092955,-33.8688197,1,Sydney 2006; Australia,Australia
4.4970097,52.1601144,1,Leiden; the Netherlands,Netherlands
2.134078,48.701844,26,F-91191 Gif-sur-Yvette; France,France
-45.18498710000001,-22.8013961,1,São Paulo CEP 12516-410; Brazil,Brazil
-75.75023139999999,39.6673566,39,DE 19716; USA,United States
-117.2338066,32.88435520000001,22,CA 92093; USA,United States
151.1883894,-33.8877655,278,NSW 2006; Australia,Australia
-75.75023139999999,39.6673566,1,Delaware 19716; USA,United States
-70.6201973,-33.4323444,10,Santiago 19; Chile,Chile
73.8196158,18.5541728,10,Pune 411007; India,India
-76.48947989999999,44.257229,1,Ontario K7K 7B4; Canada,Canada
1.4531355,43.5611027,15,F-31400 Toulouse; France,France
10.2027261,56.1460465,114,8000 Aarhus C; Denmark,Denmark
-105.2077798,40.04065060000001,87,CO 80301; USA,United States
2.1828032,48.7028006,36,91405 Orsay Cedex; France,France
1.4336973,43.58278079999999,2,Toulouse F-31400; France,France
-73.96243270000001,40.8138912,2,New York; NY 10027,United States
-0.0407197,51.5245287,20,London E1 4NS; UK,United Kingdom
0.1012034,52.2101045,8,Cambridge CB3 0WA; UK,United Kingdom
15.0830304,37.5078772,67,Catania; Italy,Italy
-46.63330939999999,-23.5505199,7,São Paulo; Brazil,Brazil
-16.3159061,28.4874009,8,La Laguna; Spain,Spain
2.189617,48.697161,26,Orsay Cedex; France,France
5.5796662,50.6325574,49,Liège; Belgium,Belgium
139.6503106,35.6761919,18,Tokyo; Japan,Japan
-116.2067524,43.6049685,3,1910 University Drive; Boise ID 83725-1570 USA,United States
-110.9447027,32.2546522,110,AZ 85719; USA,United States
-117.0125641,46.7258512,8,ID 83844-0903; USA,United States
-79.3974105,43.660818,30,ON M5S 3H4; Canada,Canada
-79.3981142,43.6608838,13,ON M5S 3H8; Canada,Canada
-155.2382164,19.7031566,18,HI 96720; USA,United States
34.8053966,32.1133726,8,Tel-Aviv 6997801; Israel,Israel
-110.1879106,31.3957613,11,AZ 85615; USA,United States
-117.3311106,33.9756518,1,Riverside CA 92521; USA,United States
-73.5436479,45.50232,25,QC H3C 3J7; Canada,Canada
-118.4440562,34.070264,4,CA 90095-1562; USA,United States
-76.944141,38.9908487,15,MD 20742-2421; USA,United States
13.5470509,52.4370179,10,12489 Berlin; Germany,Germany
-71.1032591,42.36475590000001,2,MA 02139;USA,United States
13.3283954,52.5070391,1,10623 Berlin; Germany,Germany
6.9188847,50.9302584,6,50931 Köln; Germany,Germany
139.6831095,35.6042441,55,Tokyo 152-8551; Japan,Japan
-72.65313139999999,41.558762,22,CT 06459; USA,United States
11.9466951,57.40058599999999,27,SE-439 92 Onsala; Sweden,Sweden
13.3491095,52.4273401,1,12249 Berlin; Germany,Germany
2.1131154,41.39438190000001,3,08034 Barcelona; Spain,Spain
-86.5400674,37.1184213,3,KY 42101; USA,United States
-74.7778624,40.2683078,5,NJ 08628-0718; USA,United States
-73.98153370000001,40.7388319,8,NY 10010; USA,United States
-83.01733860000002,39.9990626,2,Columbus OH 43210; USA,United States
77.5945627,12.9715987,3,Bangalore; India,India
72.8051741,18.9065507,1,Tata Institute of Fundamental Research Mumbai; India,India
118.7352158,32.2114213,1,210044; People's Republic of China,China
-86.902298,32.3182314,3,AL; USA,United States
16.3738189,48.2081743,12,Wien; Austria,Austria
-106.2039145,35.8275257,3,White Rock; NM 87547,United States
12.453389,41.902916,2,V00120 Vatican City State; Italy,Vatican City
-73.0443904,-36.8201352,3,Concepción; Chile,Chile
14.544733,53.43595879999999,7,PL-70-451 Szczecin; Poland,Poland
18.5984437,53.0137902,10,PL-87-100 Toruń; Poland,Poland
9.963474999999999,51.56655319999999,51,D-37077 Göttingen; Germany,Germany
-17.7651015,28.6887569,11,E-38700 Santa Cruz de La Palma; Spain,Spain
151.229916,-33.916869,35,NSW 2052; Australia,Australia
19.040235,47.497912,81,H-1121 Budapest; Hungary,Hungary
-91.17999999999999,30.41,11,LA 70803; USA,United States
-17.7902707,28.6303668,1,Tenerife E-38712; Spain,Spain
4.680772999999999,50.8612986,147,B-3001 Leuven; Belgium,Belgium
13.1028717,52.3875629,23,D-14482 Potsdam; Germany,Germany
19.0575622,47.4598745,7,H-1117 Budapest; Hungary,Hungary
20.1488574,46.2475713,3,Dóm tér 9; Hungary,Hungary
-105.8231588,32.7425859,15,NM 88349; USA,United States
-2.2737212,53.0030511,1,Keele ST5 5BG; UK,United Kingdom
5.865272,51.81670099999999,22,NL-6500 GL Nijmegen; the Netherlands,Netherlands
106.110698,30.837793,5,Nanchong 637002; People's Republic of China,China
116.4541469,40.0192499,8,Beijing 100012; People's Republic of China,China
120.9674798,24.8138287,2,Hsin-Chu; Taiwan,Taiwan
-75.3353875,40.0468052,2,Villanova PA 19085; USA,United States
-73.71401949999999,41.1264849,1,Armonk NY 10504; USA,United States
-77.8638835,40.8084075,1,PA; USA 16802,United States
16.9251681,52.406374,16,Poznań; Poland,Poland
11.6532477,48.2488721,12,Garching; Germany,Germany
19.040235,47.497912,89,Budapest; Hungary,Hungary
14.5528116,53.4285438,1,Szczecin; Poland,Poland
-0.9456216,51.4576163,1,RG6 6BX; UK,United Kingdom
5.1803739,44.124008,1,Bédoin; France,France
0.080097,46.01331099999999,1,Villefagnan; France,France
6.1208684,46.3118509,70,Sauverny; Switzerland,Switzerland
5.159771,44.020938,2,Mallemort-du-Comtat; France,France
8.7231591,45.396983,2,Sozzago; Italy,Italy
-3.5985571,37.1773363,37,Granada; Spain,Spain
-87.31155299999999,39.465825,1,IN 47803; USA,United States
0.409237,45.77946300000001,1,Taponnat; France,France
-120.5542012,43.8041334,1,OR; USA,United States
-17.9057813,28.7133828,7,La Palma; Spain,Spain
-8.4043125,39.6053819,1,Tomar; Portugal,Portugal
-0.7097473999999999,52.0249136,6,MK7 6AA; UK,United Kingdom
127.3747104,36.3981875,3,305-348 Daejeon; Korea,South Korea
22.287883,48.6208,2,Uzhhorod; Ukraine,Ukraine
-2.4637136,36.834047,1,Almeria; Spain,Spain
-43.1728965,-22.9068467,1,RJ; Brasil,Brazil
-106.6055534,32.3035838,1,88011; USA,United States
-111.9343636,33.3897576,1,AZ 85282; USA,United States
2.8437039,42.711815,1,St-Estève; France,France
-111.7614661,35.3605853,1,86001; USA,United States
38.2772592,37.76365,1,Adiyaman; Turkey,Turkey
133.553485,34.6714449,1,Okayama 714-1411; Japan,Japan
15.5061862,51.9356214,1,Zielona Góra; Poland,Poland
-80.7879407,28.1988979,3,FL 32940; USA,United States
34.78176759999999,32.0852999,44,Tel Aviv 69978; Israel,Israel
54.3773438,24.453884,32,Abu Dhabi; UAE,United Arab Emirates
-117.072053,32.7759882,20,CA 92182-1221; USA,United States
-97.4421919,35.1879507,25,OK 73019; USA,United States
-97.11640129999999,32.7307465,10,TX 76019; USA,United States
-121.3141847,37.9794321,1,CA 95211; USA,United States
9.0615313,48.53924809999999,4,D-72076 Tuebingen; Germany,Germany
127.3747104,36.3981875,1,305-348 Daejeon; Republic of Korea,South Korea
-97.73488049999999,30.2835151,12,TX 78712-0259; USA,United States
-77.1945247,41.2033216,1,PA 16082; USA,United States
-79.1880063,43.781841,4,Ontario M1C 1A4; Canada,Canada
-79.3974105,43.660818,5,M5S 3H4; Canada,Canada
-119.4179324,36.778261,166,CA; USA,United States
-117.3311106,33.9756518,9,CA 92521; USA,United States
4.4564808,52.16850770000001,9,2333CA Leiden; The Netherlands,Netherlands
-8.629105299999999,41.1579438,4,PT4169-007 Porto; Portugal,Portugal
-120.7401385,47.7510741,7,WA; USA,United States
-71.10973349999999,42.3736158,5,Cambridge; Massachusetts,United States
-3.7037902,40.4167754,72,Madrid; Spain,Spain
-118.1445155,34.1477849,2,Pasadena; California,United States
-122.1817252,37.4529598,1,Menlo Park; California,United States
-111.8419536,40.7652201,8,UT 84112; USA,United States
133.5823171,34.564242,31,Okayama 719-0232; Japan,Japan
134.3390285,35.03417,8,Hyogo 679-5313; Japan,Japan
135.7843912,35.0304908,35,Kyoto 606-8502; Japan,Japan
18.964741,47.500313,1,Konkoly Thege M.u. 15-17; Hungary,Hungary
-79.0581498,35.905249,29,NC 27599; USA,United States
-71.2517835,42.5465306,1,MA 01821; USA,United States
-0.7097473999999999,52.0249136,14,Milton Keynes MK7 6AA; UK,United Kingdom
-86.51860219999999,39.1714266,1,IN 47405; USA,United States
-76.8524334,38.99554120000001,1,NASA Goddard and University of Maryland,United States
-118.125269,34.1376576,5,IPAC/Caltech,United States
7.438119,46.9504896,2,University of Bern; Switzerland,Switzerland
-76.6232773,39.3327283,4,Space Telescope Science Institute,United States
-119.8633645,34.4327245,2,Las Cumbres Observatory,United States
-76.8524334,38.99554120000001,1,NASA Goddard Space Flight Center and University of Maryland,United States
-77.0358548,38.9093719,1,Carnegie Institution,United States
14.7920179,40.7687118,1,University of Salerno; Italy,Italy
-122.0644229,37.4088478,6,NASA Ames Research Center,United States
-81.7733903,26.4643209,1,Florida Gulf Coast University,United States
-76.8524334,38.99554120000001,4,NASA Goddard Space Flight Center,United States
-97.7340567,30.2849185,2,University of Texas,United States
-83.0306222,40.0068363,4,Ohio State University,United States
-76.8524334,38.99554120000001,1,University of Tokyo and NASA Goddard Space Flight Center,United States
-83.7382241,42.2780436,2,University of Michigan,United States
-87.5987133,41.7886079,2,University of Chicago,United States
-122.0582093,36.9880503,1,University of California - Santa Cruz,United States
-76.6205177,39.3299013,2,Johns Hopkins University,United States
-122.169719,37.4274745,1,Stanford University,United States
-75.6217246,45.4503935,1,National Research Council; Canada,Canada
-110.9501094,32.2318851,1,University of Arizona,United States
-77.3114889,38.8314936,2,George Mason University,United States
-0.6069397999999999,44.8050249,1,Laboratoire d'Astrophysique de Bordeaux,France
-118.1713944,34.2013081,1,Jet Propulsion Laboratory,United States
7.764842300000001,45.040985,1,INAF - Osservatorio Astrofisico di Torino,Italy
135.5244676,34.8220139,1,Osaka University,Japan
21.2610746,48.7163857,9,Košice; Slovakia,Slovakia
20.2822798,49.16449919999999,3,059 60 Tatranská Lomnica; The Slovak Republic,Slovakia
23.3877614,42.65626049999999,5,1784 Sofia; Bulgaria,Bulgaria
24.7384095,41.6947013,1,Rozhen NAO; Bulgaria,Bulgaria
-106.3031138,35.8800364,1,Los Alamos; United States,United States
-106.7636538,32.3199396,1,Las Cruces; United States,United States
18.964741,47.500313,1,Konkoly Thege M. u. 15-17; Hungary,Hungary
4.696757799999999,50.88151970000001,3,B-3000 Leuven; Belgium,Belgium
18.4240553,-33.9248685,1,Cape Town 4735; South Africa,South Africa
21.0655731,52.2121784,10,PL-00-716 Warsaw; Poland,Poland
32.8597419,39.9333635,6,Ankara; Turkey,Turkey
28.0010421,-26.202209,1,Johannesburg 2092; South Africa,South Africa
-0.5880721,51.2440379,1,Guildford GU2 7XH; UK,United Kingdom
-76.48947989999999,44.257229,1,ON K7K 7B4; Canada,Canada
21.1897739,48.753595,4,040 01 Košice; Slovakia,Slovakia
20.2822798,49.16449919999999,13,059 60 Tatranská Lomnica; Slovakia,Slovakia
-70.76305119999999,-30.47254109999999,1,El Sauce Observatory; Chile,Chile
5.503793,44.399702,1,05150 Moydans; France,France
-3.7037902,40.4167754,1,28000 Madrid; Spain,Spain
5.6142558,43.5670696,1,13126 Vauvenargues; France,France
7.51444,46.31292999999999,1,Grand-Pra private observatory; Switzerland,Switzerland
-15.2020077,64.24970259999999,1,781 Hofn in Hornafjordur; Iceland,Iceland
12.3155151,45.4408474,1,30100 Venezia; Italy,Italy
-46.63330939999999,-23.5505199,16,SP; Brazil,Brazil
-43.1728965,-22.9068467,6,RJ; Brazil,Brazil
6.1657813,46.2876938,47,CH-1290 Versoix; Switzerland,Switzerland
145.1348243,-37.9104511,1,VIC 3800; Australia,Australia
-122.5426928,47.230393,1,WA 98466; USA,United States
-1.61778,54.978252,3,Newcastle-upon-Tyne; UK,United Kingdom
-74.0059728,40.7127753,11,NY; USA,United States
149.0123679,-35.4734679,1,Australian Capital Territory; Australia,Australia
27.2058765,38.4502845,2,35100; Turkey,Turkey
-122.0781663,37.4062237,1,CA 94043; United States,United States
-71.11666009999999,42.3770029,14,Harvard University,United States
-97.7340567,30.2849185,1,The University of Texas at Austin,United States
-106.5346158,35.0606255,1,Sandia National Laboratories,United States
-84.39628499999999,33.7756178,1,Georgia Institute of Technology,United States
7.764842300000001,45.040985,2,Istituto Nazionale di Astrofisica─Osservatorio Astrofisico di Torino,Italy
-157.8171118,21.296939,1,University of Hawaii,United States
-0.7090257999999999,52.0252055,1,The Open University,United Kingdom
116.3700367,39.9586544,63,Beijing 100875; China,China
116.222804,39.911563,8,Beijing 100049; China,China
116.4110862,39.9942844,7,Beijing 100101; China,China
118.8358867,32.0891328,28,Nanjing 210042; China,China
116.222804,39.911563,3,100049; PR China,China
9.9936819,53.5510846,38,Hamburg; Germany,Germany
120.7490649,31.3062507,1,215123; PR China,China
16.3738189,48.2081743,37,Vienna; Austria,Austria
-157.8152491,21.3175493,18,96822; USA,United States
14.28583,48.30694,1,Linz; Austria,Austria
21.0122287,52.2296756,8,Warsaw; Poland,Poland
17.0385376,51.1078852,21,Wrocław; Poland,Poland
18.6713802,50.29449229999999,1,Gliwice; Poland,Poland
-85.323214,51.253775,6,ON; Canada,Canada
11.4041024,47.2692124,1,Innsbruck; Austria,Austria
-122.2594606,37.87015100000001,5,94720-3411; USA,United States
0.09291429999999999,52.2087836,6,CB3 0HE; UK,United Kingdom
12.4949429,55.763516,1,Lyngby; Denmark,Denmark
-2.8074837,56.3401503,28,KY16 9SS; UK,United Kingdom
9.1314338,39.2819578,1,Via della Scienza 5 - 09047 Selargius CA; Italy,Italy
9.4065471,45.6983647,4,Merate; Italy,Italy
-3.188267,55.953252,7,Edinburgh; UK,United Kingdom
-5.93012,54.59728500000001,6,Belfast; UK,United Kingdom
-87.603826,41.7805099,4,60637; USA,United States
-2.2737212,53.0030511,67,ST5 5BG; UK,United Kingdom
-3.1495175,56.2082078,2,Fife; UK,United Kingdom
-1.5649432,52.3860241,86,CV4 7AL; UK,United Kingdom
-1.6777926,48.117266,8,Rennes; France,France
-75.3353875,40.0468052,7,19085; USA,United States
-71.82717389999999,45.3667531,9,QC J1M 1Z7; Canada,Canada
-115.155709,36.164846,2,NV 89155; USA,United States
-122.1689284,37.4135757,92,CA 94305; USA,United States
-35.2450647,-5.8356827,2,59072-970; Brazil,Brazil
-46.7329875,-23.559858,1,05508-090; Brasil,Brazil
-45.8583126,-23.2079247,3,12227-010; Brazil,Brazil
-38.985274,-12.150325,1,BA 44036-900; Brazil,Brazil
-111.9311925,33.418294,6,AZ 85287; USA,United States
-75.1953934,39.9583587,9,PA 19104; USA,United States
-79.95319479999999,40.4424402,3,PA 15260; USA,United States
116.4110862,39.9942844,9,Beijing 100101; People's Republic of China,China
114.3686304,30.5399216,1,Hubei 430072; People's Republic of China,China
-115.1381487,36.1451645,5,NV 89154; USA,United States
118.776758,32.056318,28,Nanjing 210093; China,China
11.8704306,45.4003087,21,Padova I-35122; Italy,Italy
12.5113741,55.7841732,4,DK-2800 Lyngby; Denmark,Denmark
0.09291429999999999,52.2087836,32,Cambridge CB3 0HE; UK,United Kingdom
-3.1741851,55.920452,1,Edinburgh EH9 3FD; UK,United Kingdom
7.769664400000001,45.0445643,35,I-10025 Pino Torinese; Italy,Italy
-70.6692655,-33.4488897,135,Santiago; Chile,Chile
13.3543969,38.1116229,14,I-90134 Palermo; Italy,Italy
-118.4065088,33.7481723,3,CA; Italy,United States
9.4065471,45.6983647,2,I-23807 Merate; Italy,Italy
7.681092100000001,45.0576139,36,I-10125 Torino; Italy,Italy
-16.3007626,28.4868465,9,E-38205 La Laguna; Spain,Spain
11.7158452,50.9910636,35,D-07778 Tautenberg; Germany,Germany
13.3283954,52.5070391,21,D-10623 Berlin; Germany,Germany
-70.6692655,-33.4488897,2,19001 Santiago de Chile; Chile,Chile
13.5470509,52.4370179,103,D-12489 Berlin; Germany,Germany
4.4564808,52.16850770000001,2,NL-2333CA Leiden; the Netherlands,Netherlands
6.9188847,50.9302584,61,D-50931 Köln; Germany,Germany
8.7202574,49.3928952,81,D-69117 Heidelberg; Germany,Germany
-3.1741851,55.920452,1,EH93FD; UK,United Kingdom
11.8704306,45.4003087,77,I-35122 Padova; Italy,Italy
-2.8074837,56.3401503,2,St Andrews KY169SS; UK,United Kingdom
6.1208684,46.3118509,18,CH-1290 Sauverny; Switzerland,Switzerland
-8.6393579,41.1502012,64,4150-762 Porto; Portugal,Portugal
-17.7724671,28.6412969,22,E-38712 Breña Baja; Spain,Spain
14.4674187,50.1091754,2,CZ-180 00 Praha; Czech Republic,Czechia
15.5858914,49.6652737,5,CZ-611 37 Brno; Czech Republic,Czechia
14.7814608,49.9090565,1,CZ-251 65 Ondřejov; Czech Republic,Czechia
116.3700367,39.9586544,16,Beijing 100875; P. R. China,China
116.4541469,40.0192499,19,Beijing 100012; P. R. China,China
102.849645,24.840109,4,Yunnan University Kunming 650500; P. R. China,China
116.316292,39.991698,10,Beijing 100871; P. R. China,China
11.6532477,48.2488721,31,D-85748 Garching; Germany,Germany
35.48259700000001,38.720489,1,Kayseri; Turkey,Turkey
28.9783589,41.0082376,2,Istanbul; Turkey,Turkey
2.2297137,48.8207053,28,92195 Meudon; France,France
8.6724335,49.3987524,80,Heidelberg; Germany,Germany
5.715193999999999,43.910292,11,Saint-Michel-l'Observatoire; France,France
5.724524,45.188529,48,Grenoble; France,France
7.261953200000001,43.7101728,15,Nice; France,France
-155.7134009,20.0390812,6,96743; USA,United States
139.6831095,35.6042441,4,152-8551; Japan,Japan
133.5823171,34.564242,3,719-0232; Japan,Japan
72.8197581,18.9103689,3,400005; India,India
-73.61315359999999,45.5058219,1,Quebec H3T 1J4; Canada,Canada
-86.9523954,36.1484862,7,TN 37209; USA,United States
-73.61315359999999,45.5058219,9,H3T 1J4; Canada,Canada
5.724524,45.188529,23,F-38000 Grenoble; France,France
-118.0830047,34.16423960000001,2,Pasadena CA 91107; USA,United States
-118.1247032,34.1378866,2,Pasadena CA 91125; USA,United States
-118.5258067,34.2489458,2,CA 91330; USA,United States
6.1593423,46.2891894,22,1290 Sauverny; Switzerland,Switzerland
-8.629105299999999,41.1579438,11,4169-007 Porto; Portugal,Portugal
2.1278398,41.3790881,2,E-08028 Barcelona; Spain,Spain
8.7202574,49.3928952,4,Heidelberg D-69117; Germany,Germany
-0.1277583,51.5073509,5,London; UK,United Kingdom
-71.2519374,-29.9026691,1,Casilla 601 La Serena; Chile,Chile
-87.62651489999999,41.8758199,34,HI; USA,United States
-118.4440562,34.070264,57,CA 90095; USA,United States
-73.2460582,42.3043674,29,MA 01238; USA,United States
9.4065471,45.6983647,4,I-23807 Merate (LC); Italy,Italy
-82.5510469,35.6304783,6,NC 28804; USA,United States
-2.8074837,56.3401503,5,St. Andrews KY16 9SS; UK,United Kingdom
-8.6393579,41.1502012,14,PT4150-762 Porto; Portugal,Portugal
-122.0581762,36.9923139,133,CA 95064; USA,United States
-71.2079809,46.8138783,7,QC; Canada,Canada
6.1425548,46.28896599999999,24,CH-1290; Switzerland,Switzerland
9.1629372,39.2596768,3,Selargius; Italy,Italy
-0.1748772,51.49879970000001,2,Imperial College London; UK,United Kingdom
-79.9594886,39.654181,2,WV 26506; USA,United States
-122.1235054,37.4177563,1,CA 94306; USA,United States
-76.7336521,39.4647665,1,Baltimore County; USA,United States
-122.6420207,38.235501,28,CA 94952; USA,United States
-75.3761952,40.5967701,23,PA 18015; USA,United States
-75.7774177,40.5173165,1,Kutztown PA 19530; USA,United States
121.3009798,24.9936281,4,Taoyuan City; Taiwan,Taiwan
113.563922,22.1596848,2,Taipa; Macau,Macao
7.427328599999999,46.9588575,6,CH-3012 Bern; Switzerland,Switzerland
11.6532477,48.2488721,7,D-85748 Garching bei München; Germany,Germany
4.4970097,52.1601144,1,NL-2333 RA Leiden; the Netherlands,Netherlands
-118.1268976,34.1456654,25,CA 91106; USA,United States
72.9288426,19.0482616,12,Mumbai 400088; India,India
-73.087749,41.6032207,7,CT 065208101; USA,United States
-16.3375493,28.4894267,9,38206 La Laguna; Spain,Spain
13.3491095,52.4273401,2,D-12249 Berlin; Germany,Germany
-1.2567194,51.7614265,2,Oxford OX1 3PU; UK,United Kingdom
18.5984437,53.0137902,13,87-100 Toruń; Poland,Poland
17.085321,51.10901089999999,55,51-622 Wrocław; Poland,Poland
151.9533185,-27.5564884,3,Toowoomba 4350; Australia,Australia
-46.63330939999999,-23.5505199,1,896 São Paulo; Brazil,Brazil
-87.62357420000001,41.8703314,36,IL 60605; USA,United States
-119.4179324,36.778261,11,California; USA,United States
145.0328017,-37.8222114,2,VIC 3122; Australia,Australia
115.9083631,-32.0058457,1,Western Australia 6102; Australia,Australia
21.734574,38.2466395,1,Patra; Greece,Greece
11.3426162,44.494887,10,Bologna; Italy,Italy
14.26812,40.8517983,13,Napoli; Italy,Italy
6.1657813,46.2876938,103,Versoix; Switzerland,Switzerland
6.1431577,46.2043907,1,Geneva; Switzerland,Switzerland
18.9642969,47.4996973,2,Konkoly Thege M. ut 15-17; Hungary,Hungary
10.2030118,56.1681384,5,Aarhus University; Denmark,Denmark
-73.087749,41.6032207,9,CT; USA,United States
13.1014966,52.4039328,3,Leibniz-Institut für Astrophysik Potsdam; Germany,Germany
-122.3035199,47.65533509999999,2,University of Washington; USA,United States
139.9757575,35.8675958,2,Kashiwa; Japan,Japan
10.2027261,56.1460465,18,Aarhus C.; Denmark,Denmark
116.4110862,39.9942844,2,100101; PR China,China
78.1906417,11.1869501,2,637002; PR China,India
-73.9874105,40.7322535,1,10003; USA,United States
151.229916,-33.916869,1,2052; Australia,Australia
12.5683372,55.6760968,9,Copenhagen; Denmark,Denmark
-101.8820434,33.5886439,1,79409; USA,United States
-64.896335,18.335765,2,United States Virgin Islands; USA,U.S. Virgin Islands
-71.3824374,42.4072107,38,MA; USA,United States
-118.8829816,34.2942772,3,CA 93021; USA,United States
-123.4208592,48.5167241,2,V9E 2E7; Canada,Canada
-74.651754,40.3815302,33,NJ 08540; USA,United States
-76.944141,38.9908487,2,20742; USA,United States
103.819836,1.352083,5,Singapore; Singapore,Singapore
-89.3985283,40.6331249,2,IL; USA,United States
172.6362254,-43.5320544,5,Christchurch; New Zealand,New Zealand
26.408587,40.14671999999999,6,Canakkale; Turkey,Turkey
-111.0937311,39.3209801,5,UT; USA,United States
135.4533378,34.8032044,31,Osaka 560-0043; Japan,Japan
-122.4894588,48.7562157,21,WA 98225; USA,United States
-70.3321587,-27.3665763,1,Copiap'; Chile,Chile
-43.2253949,-22.894884,3,Rio de Janeiro RJ 20921-400; Brazil,Brazil
-81.2634983,43.0085587,1,N6A 3K7; Canada,Canada
-71.61268849999999,-33.047238,1,2360102 Valparaiso; Chile,Chile
-87.55936129999999,33.1225986,1,AL 35405; USA,United States
100.2658516,16.8211238,2,Phitsanulok 65000; Thailand,Thailand
21.6779967,-33.5276391,2,Calitzdorp; South Africa,South Africa
-0.1453441,51.50834769999999,2,London W1J ODU; UK,United Kingdom
14.1989038,40.864297,1,I-80131; Italy,Italy
-1.3956847,50.934189,9,Southampton SO17 1BJ; UK,United Kingdom
-1.4862284,53.3808721,17,Sheffield S3 7RH; UK,United Kingdom
-86.51860219999999,39.1714266,6,IN 47405-7105; USA,United States
-2.2737212,53.0030511,1,Keele University; Keele ST5 5BG,United Kingdom
-110.1640846,31.5091589,5,AZ 85650; USA,United States
115.7752703,-31.9685608,2,Western Australia 6010; Australia,Australia
7.216236299999999,51.4818445,2,44780 Bochum; Germany,Germany
19.9042597,50.0765798,8,PL-30-084 Kraków; Poland,Poland
-71.61268849999999,-33.047238,1,Valparaiso 2360102; Chile,Chile
17.4016765,47.4554252,1,8533 Malomsok; Hungary,Hungary
-99.18919609999999,19.3303801,2,04510; México,Mexico
-105.24,39.98999999999999,2,CO 80307-3000; USA,United States
-0.630386,44.80583,9,F-33615 Pessac; France,France
-2.58791,51.454513,2,Bristol; UK,United Kingdom
11.8767611,45.4064349,3,Padua; Italy,Italy
12.4949429,55.763516,1,Kongens Lyngby; Denmark,Denmark
-2.7967214,56.3397753,2,St Andrews; UK,United Kingdom
-17.7724671,28.6412969,17,Breña Baja; Spain,Spain
-70.57241239999999,-33.3905211,1,Vitacura; Chile,Chile
-82.713132,37.6898557,1,KY 41653; United States,United States
-122.0781663,37.4062237,12,94043; USA,United States
-122.0525,37.41752,80,94035; USA,United States
-110.8850949,32.2107257,2,85711; USA,United States
31.2357116,30.0444196,4,Cairo 12613; Egypt,Egypt
31.29821209999999,29.8402707,2,Helwan 11421; Egypt,Egypt
6.1657813,46.2876938,75,1290 Versoix; Switzerland,Switzerland
6.024053899999999,47.237829,3,Besançon; France,France
-5.8593267,43.3613953,2,Asturias; Spain,Spain
2.8779388,50.8492265,4,Ieper; Belgium,Belgium
127.4890319,36.6424341,2,Cheongju 28644; Republic of Korea,South Korea
-83.6694169,42.3053253,27,MI 48109; USA,United States
-86.80696979999999,36.1718363,25,TN 37208; USA,United States
-2.0571868,52.8792745,2,Staffordshire; UK,United Kingdom
18.4687792,-33.9382014,12,Observatory 7935; South Africa,South Africa
-1.519693,52.406822,17,Coventry; UK,United Kingdom
-35.9083975,-7.220422399999999,1,58429-900; Brazil,Brazil
-119.8696691,34.4301656,4,CA 93117-5575; USA,United States
116.3288577,40.0006896,32,100084; People's Republic of China,China
-110.9488008,32.2332841,17,AZ 85721-0065; USA,United States
116.4541469,40.0192499,12,100012; People's Republic of China,China
-96.33959209999999,30.6096445,5,TX 77843; USA,United States
121.4017901,30.9926709,1,Shanghai 200240; People's Republic of China,China
-97.092877,35.0077519,5,OK; USA,United States
117.1241016,39.0917891,3,300384; People's Republic of China,China
-121.7765309,38.5474428,2,CA 95616; USA,United States
-86.2412543,41.7043332,2,IN 46556-5670; USA,United States
-74.4642861,40.554887,2,NJ 08854; USA,United States
116.316292,39.991698,10,Beijing 100871; People's Republic of China,China
-2.9687985,53.4055957,12,Liverpool L3 5RF; UK,United Kingdom
145.7405497,-16.918648,1,QLD 4870; Australia,Australia
-0.3762881,39.4699075,3,Valencia; Spain,Spain
-91.54870989999999,41.659363,6,IA 52242; USA,United States
-71.2280234,42.4286907,2,MA 02421; USA,United States
18.9821804,47.4971726,33,1121; Hungary,Hungary
19.0569633,47.5193351,2,1133; Hungary,Hungary
-2.7831793,54.0107772,2,Lancaster LA1 4 YB; UK,United Kingdom
2.3255684,48.8314408,16,F-75014 Paris; France,France
-1.3956847,50.934189,2,SO17 1BJ; UK,United Kingdom
-76.71200639999999,39.2546062,10,MD 21250; USA,United States
-35.8808337,-7.2290752,5,Campina Grande; Brazil,Brazil
-105.2077798,40.0005378,81,CO 80303; USA,United States
12.5727765,55.7085326,17,DK-2100 Copenhagen; Denmark,Denmark
145.7405497,-16.918648,2,Queensland 4870; Australia,Australia
34.811272,31.892773,2,Rehovot 76100; Israel,Israel
-86.2412543,41.7043332,2,46556-5670; USA,United States
-122.2594606,37.87015100000001,21,California 94720; USA,United States
149.1213974,-35.28099419999999,2,ACT 2601; Australia,Australia
-105.2077798,40.04065060000001,24,80301; USA,United States
121.4017901,30.9926709,2,200240; People's Republic of China,China
102.7186974,25.0266546,1,650011; People's Republic of China,China
-16.2518467,28.4636296,9,Santa Cruz de Tenerife; Spain,Spain
-122.2594606,37.87015100000001,14,94720; USA,United States
-121.7617125,38.5382322,1,CA 95616-5270; USA,United States
20.1504896,46.2502494,1,Szeged; 6720 Hungary,Hungary
-2.7831793,54.0107772,2,Lancaster LA1 4YB; UK,United Kingdom
-1.0986391,50.79773059999999,1,Portsmouth PO1 3FX; UK,United Kingdom
-78.510016,38.0340277,9,VA 22904; USA,United States
-120.7401385,47.7510741,5,Washington; USA,United States
-99.18657739999999,19.3228313,1,Universidad Nacional Autónoma de México; México,Mexico
133.919795,34.6555312,4,Okayama; Japan,Japan
139.284143,35.4913535,2,Kanagawa; Japan,Japan
135.7681489,35.011564,5,Kyoto; Japan,Japan
-85.323214,51.253775,3,Ontario; Canada,Canada
-17.7651015,28.6887569,6,E-38700; Spain,Spain
4.4970097,52.1601144,16,NL-2300 RA Leiden; the Netherlands,Netherlands
-16.3007626,28.4868465,21,E-38205 Tenerife; Spain,Spain
11.3394826,44.5216099,2,I-40129 Bologna; Italy,Italy
14.1989038,40.864297,20,I-80131 Napoli; Italy,Italy
6.5665017,53.2193835,2,NL-9700 AV Groningen; the Netherlands,Netherlands
13.203493,55.7119483,8,SE-22100 Lund; Sweden,Sweden
139.6831373,35.6042164,5,Tokyo 152-8550; Japan,Japan
2.2265084,48.80556929999999,30,F-92195 Meudon; France,France
5.5628874,50.63507569999999,23,B-4000 Liège; Belgium,Belgium
11.1814209,50.369682,4,D-96515 Sonneberg; Germany,Germany
79.8083133,11.9415915,1,Puducherry; India,India
77.5945627,12.9715987,1,Bangalore 563004; India,India
116.4541469,40.0192499,70,Beijing 100012; China,China
-118.4367551,34.0631451,5,CA 90024; USA,United States
51.3889736,35.6891975,1,19395-5746 Tehran; Iran,Iran
116.4073963,39.90419989999999,9,Beijing; China,China
46.6752957,24.7135517,2,Riyadh; Saudi Arabia,Saudi Arabia
140.8412111,38.2591364,1,980-8578; Japan,Japan
2.189617,48.697161,4,Orsay; France,France
19.0617287,47.4745763,1,Pázmány Péter sétány 1/a; Hungary,Hungary
34.8053966,32.1133726,1,Tel Aviv 6997801; Israel,Israel
-2.4637136,36.834047,4,Almería; Spain,Spain
-122.1277465,47.55770769999999,1,98006; USA,United States
18.9543051,46.1817951,2,Baja; Hungary,Hungary
-122.1492224,48.0563616,1,98270; USA,United States
-74.6672226,40.3572976,3,Princeton; USA,United States
116.316292,39.991698,1,100871; PR China,China
121.5654177,25.0329694,1,Taipei; Taiwan,Taiwan
35.0231271,32.7767783,2,3200003; Israel,Israel
-71.866308,45.36224920000001,1,QC J1M IZ7; Canada,Canada
-76.9873477,42.8361156,16,NY 14456; USA,United States
-71.1240559,42.3421605,2,MA 02446; USA,United States
-110.9488008,32.2332841,5,Tucson AZ 85721; USA,United States
139.761989,35.7126775,1,The University of Tokyo; Tokyo 113-0033 Japan,Japan
-82.90712300000001,40.4172871,5,OH; USA,United States
46.2738013,38.096239,4,Tabriz; Iran,Iran
4.3559193,50.7904904,19,B-1180 Brussels; Belgium,Belgium
75.7138884,15.3172775,2,Karnataka; India,India
79.4635658,29.3803039,9,Nainital; India,India
28.0473051,-26.2041028,3,Johannesburg; South Africa,South Africa
4.3517211,50.8503463,17,Brussel; Belgium,Belgium
2.134078,48.701844,58,F-91191 Gif-sur-Yvette Cedex; France,France
4.6958889,50.86260720000001,11,B-3001 Heverlee; Belgium,Belgium
-106.31,35.89,7,NM 87545; USA,United States
-122.2593784,37.8714997,1,University of California at Berkeley; USA,United States
0.1149085,52.2042666,3,University of Cambridge; UK,United Kingdom
5.4366784,43.3434265,1,Laboratoire d'Astrophysique de Marseille; France,France
138.6062277,-34.920603,1,University of Adelaide; Australia,Australia
-122.0514855,37.3862822,7,SETI Institute; USA,United States
-122.0644229,37.4088478,4,NASA Ames Research Center; USA,United States
2.1030058,48.8378281,1,Institut national de recherche en informatique et en automatique; France,France
118.776758,32.056318,12,Nanjing 210093; People's Republic of China,China
4.4970097,52.1601144,2,NL-2300 RA Leiden; The Netherlands,Netherlands
-35.2450647,-5.8356827,6,RN 59072-970; Brazil,Brazil
-38.7577605,-4.2602652,1,CE 62790-000; Brazil,Brazil
6.1208684,46.3118509,12,Sauverny CH-1290; Switzerland,Switzerland
-38.5611667,-3.742708299999999,1,CE 60455-900; Brazil,Brazil
-35.2044878,-5.8108518,1,RN 59015-000; Brazil,Brazil
2.0864011,41.5037176,23,E-08193 Bellaterra; Spain,Spain
9.963474999999999,51.56655319999999,2,D-37077 Gottingen; Germany,Germany
-72.9310217,41.3064267,10,06520-8101; USA,United States
-43.1728965,-22.9068467,11,Rio de Janeiro; Brazil,Brazil
-104.0072348,30.7713229,4,TX 79734-3005; USA,United States
-110.9447027,32.2546522,1,Tucson; AZ 85719 USA,United States
-105.2705456,40.0149856,1,Boulder Colorado 80309-0389; USA,United States
-86.23793280000001,41.7001908,1,Notre Dame; IN 46556 USA,United States
6.024053899999999,47.237829,1,F-25010 Besançon Cedex; France,France
-97.3617845,32.7087439,6,TX 76129; USA,United States
-77.8638835,40.8084075,1,University Park; PA 16802 USA,United States
18.4240553,-33.9248685,36,Cape Town; South Africa,South Africa
-3.1741851,55.920452,1,Edinburgh EH93FD; UK,United Kingdom
9.1629372,39.2596768,1,I-09047 Selargius; Italy,Italy
-91.18330429999999,30.372807,5,70820; USA,United States
-81.5157535,27.6648274,1,Florida; USA,United States
-81.0533854,29.0034265,1,32168; USA,United States
-105.6412527,38.3883641,1,81223; USA,United States
-2.5664212,53.4098394,1,Cheshire WA2 0GN; UK,United Kingdom
26.4361327,62.38944069999999,3,Hankasalmi; Finland,Finland
-105.5108312,39.9613759,1,Nederland Colorado; USA,United States
18.6264694,-33.8812733,1,Bellville 7535; South Africa,South Africa
20.1504896,46.2502494,4,H-6720 Szeged; Hungary,Hungary
16.6108367,47.2336602,8,H-9700 Szombathely; Hungary,Hungary
-82.371937,29.6130239,46,FL 32611; USA,United States
-104.8571368,38.994425,1,CO 80840; USA,United States
-43.2253949,-22.894884,8,RJ 20921-400; Brazil,Brazil
-51.2176986,-30.0346316,3,RS 91501-970; Brazil,Brazil
-43.1859153,-22.8990766,1,RJ 20080-090; Brazil,Brazil
37.6172999,55.755826,1,119992 Moscow; Russia,Russia
-105.8231588,32.7425859,5,NM 88349-0059; USA,United States
172.5780878,-43.5261634,4,Christchurch 8041; New Zealand,New Zealand
-0.2421732,51.7528765,5,Hertfordshire AL10 9AB; UK,United Kingdom
-101.8820434,33.5886439,5,TX 79409-1051; USA,United States
-0.5880721,51.2440379,1,Guildford GU2 7XH; United Kingdom,United Kingdom
-117.072053,32.7759882,110,CA 92182; USA,United States
-123.3647699,48.425114,1,V8W 2Y2; Canada,Canada
17.6389267,59.85856380000001,4,SE-751 20 Uppsala; Sweden,Sweden
-104.0072348,30.7713229,13,TX 79734; USA,United States
13.203493,55.7119483,17,SE-221 00 Lund; Sweden,Sweden
151.229916,-33.916869,3,Sydney NSW 2052; Australia,Australia
-5.8493887,43.3619145,6,Oviedo; Spain,Spain
-3.689073,40.410138,1,Consejo Superior de Investigaciones Científicas; Spain,Spain
9.9484313,51.55995069999999,1,Max Planck Institute for Solar System Research,Germany
2.3522219,48.856614,37,Paris; France,France
-0.630386,44.80583,8,Pessac; France,France
7.280806999999999,43.704712,19,Nice Cedex 4; France,France
6.9188847,50.9302584,2,50931; Germany,Germany
34.78176759999999,32.0852999,21,Tel Aviv; Israel,Israel
34.811272,31.892773,3,Rehovot; Israel,Israel
2.23847,48.812995,89,Meudon Cedex; France,France
41.7303939,43.8845143,1,Karachai-Cherkessian Republic; Russia,Russia
20.2822798,49.16449919999999,3,Tatranská Lomnica; Slovakia,Slovakia
10.2027261,56.1460465,2,8000; Denmark,Denmark
1.4531355,43.5611027,3,31400; France,France
-73.9976946,40.7250632,1,10012; USA,United States
-3.952696,40.444211,1,ESAC campus 28692 Villanueva de la Cañada (Madrid); Spain,Spain
7.769664400000001,45.0445643,2,Pino Torinese (TO); Italy,Italy
-70.6692655,-33.4488897,13,Santiago de Chile; Chile,Chile
-57.95356570000001,-34.9204948,7,La Plata; Argentina,Argentina
-73.62214519999999,45.5004912,3,H3T J4; Canada,Canada
-118.5914696,34.4400287,3,CA 91355; USA,United States
8.7202574,49.3928952,8,69117 Heidelberg; Germany,Germany
151.9298909,-27.6032946,2,Engineering and Sciences Toowoomba Qld 4350; Australia,Australia
5.5628874,50.63507569999999,6,B-4000 Liége; Belgium,Belgium
7.4474468,46.9479739,23,Bern; Switzerland,Switzerland
-122.3084023,47.6508882,2,Seattle; WA 98195 USA,United States
-1.9317168,52.4511304,1,Birmimgham B15 2TT; UK,United Kingdom
39.825569,21.418034,1,Makkah Clock; Saudi Arabia,Saudi Arabia
-117.2338066,32.88435520000001,2,92093; USA,United States
0.0902733,52.2071261,4,CB3 0H3; UK,United Kingdom
72.8197581,18.9103689,13,Mumbai 400005; India,India
7.427328599999999,46.9588575,3,3012 Bern; Switzerland,Switzerland
77.6043993,12.9342565,1,Bangalore 560029; India,India
77.62210910000002,12.9261382,7,Bangalore 560034; India,India
100.546488,13.7739818,3,Bangkok 10400; Thailand,Thailand
98.9024603,18.9028017,3,50180; Thailand,Thailand
-156.3200234,20.8525374,3,HI 96768; USA,United States
-1.4862284,53.3808721,2,S3 7RH; UK,United Kingdom
-85.7624992,38.21692609999999,2,KY 40292; USA,United States
98.93557369999999,18.7952345,2,50200; Thailand,Thailand
18.4721169,-33.9375585,3,Cape Town 7935; South Africa,South Africa
-78.879631,42.98444200000001,4,Citizen Scientist,United States
116.222804,39.911563,13,Beijing 100049; People's Republic of China,China
-118.1941785,34.2133926,1,CA 91011; USA,United States
-111.653403,35.19054029999999,3,AZ 86011; USA,United States
121.1922029,24.9679966,5,National Central University; Taiwan,Taiwan
113.5650208,22.1524575,1,Macau University of Science and Technology; Macau MSAR,Macao
-86.2366507,41.7015402,1,Joint Institute for Nuclear Astrophysics—Center for the Evolution of the Elements; USA,United States
-119.8496976,34.4135868,73,CA 93106; USA,United States
-111.0937311,34.0489281,10,AZ; USA,United States
18.964741,47.500313,1,Budapest; Konkoly Thege M. út 15-17 Hungary,Hungary
-71.10920120000002,42.4274971,2,MA 02155; USA,United States
-75.737149,40.533145,3,PA 19530; USA,United States
-73.2529464,42.6852841,1,MA 01267; USA,United States
-80.33314469999999,41.1186408,1,PA 16172; USA,United States
151.9533185,-27.5564884,10,Queensland 4350; Australia,Australia
-46.63330939999999,-23.5505199,7,Sao Paulo; Brazil,Brazil
-76.860565,39.1426709,4,MD 20723; USA,United States
-1.1743197,52.3555177,1,England; United Kingdom,United Kingdom
121.5654177,25.0329694,1,Taipei 10617;Taiwan,Taiwan
77.6407258,12.9369154,1,Karnataka 560095; India,India
16.9305438,52.4648952,2,Poznań 61-614; Poland,Poland
25.594752,-25.8377623,1,Mmabatho 2745; South Africa,South Africa
-8.6393579,41.1502012,1,Porto PT4150-762; Portugal,Portugal
4.680772999999999,50.8612986,1,Leuven B-3001; Belgium,Belgium
-73.1233889,40.9123761,1,NY 11794-3800; USA,United States
127.3845475,36.3504119,6,Daejeon 34113; Korea,South Korea
127.4890319,36.6424341,2,Cheongju 28644; Korea,South Korea
11.9466951,57.40058599999999,1,E-439 92 Onsala; Sweden,Sweden
12.5727765,55.7085326,1,2100 Copenhagen Ø; Denmark,Denmark
-0.1334753,51.5242957,11,London WC1E 6BT; UK,United Kingdom
10.1227651,54.3232927,6,D-24098 Kiel; Germany,Germany
-3.6927531,40.52506899999999,3,E-28049 Madrid; Spain,Spain
-121.9302449,37.2260616,2,CA 95032; USA,United States
-117.5848025,34.1787581,1,CA 91737; USA,United States
-64.7867011,46.1053892,1,E1A 3E9; Canada,Canada
7.261953200000001,43.7101728,5,Nice Cedex; France,France
-119.8496976,34.4135868,1,93106; USA,United States
2.3409152,48.9568404,5,Sorbonne Paris Cité; France,France
-89.42692869999999,43.1054334,2,53706; USA,United States
5.853572,51.8380601,3,GL Nijmegen; The Netherlands,Netherlands
9.963474999999999,51.56655319999999,11,37077 Göttingen; Germany,Germany
13.1028717,52.3875629,1,14482 Potsdam; Germany,Germany
-116.6523873,31.8726367,2,22860 Ensenada; México,Mexico
5.1352053,52.0988812,1,CA Utrecht; The Netherlands,Netherlands
-110.9447027,32.2546522,4,85719; USA,United States
-2.2335952,53.46668099999999,14,Manchester M13 9PL; UK,United Kingdom
79.90010869999999,6.795131899999999,1,Arthur C. Clarke Institute for Modern Technologies; Sri Lanka,Sri Lanka
-99.9018131,31.9685988,5,TX; USA,United States
-86.2412543,41.7043332,2,46556; USA,United States
80.7872185,6.7145912,1,Sabaragamuwa University of Sri Lanka; Sri Lanka,Sri Lanka
-76.860565,39.1426709,1,20723; USA,United States
-69.1328491,-23.8634189,1,Atacama; Chile,Chile
-3.1855682,55.9205068,6,EH9 3HJ; UK,United Kingdom
11.6532477,48.2488721,5,85748 Garching; Germany,Germany
16.8776437,52.3962363,6,60-286 Poznań; Poland,Poland
-3.5838002,37.15490339999999,10,18008 Granada; Spain,Spain
116.3700367,39.9586544,1,100875; People's Republic of China,China
118.776758,32.056318,1,210093; People's Republic of China,China
-73.9874105,40.7322535,13,NY 10003; USA,United States
-72.9310217,41.3064267,75,CT 06520-8101; USA,United States
116.3094072,37.4911306,1,Dezhou 253023; People's Republic of China,China
-45.18498710000001,-22.8013961,2,CEP 12516-410 São Paulo; Brazil,Brazil
116.3700367,39.9586544,7,Beijing 100875; People's Republic of China,China
4.3559193,50.7904904,16,B-1180 Brussel; Belgium,Belgium
-81.6795209,36.2139148,5,NC 28608; USA,United States
116.316292,39.991698,1,100871; People's Republic of China,China
118.8358867,32.0891328,4,Nanjing 210042; People's Republic of China,China
4.8648454,52.3335596,1,1081HV Amsterdam; The Netherlands,Netherlands
4.3559193,50.7904904,2,1180 Brussels; Belgium,Belgium
4.680772999999999,50.8612986,48,3001 Leuven; Belgium,Belgium
3.7106183,50.99980619999999,2,9052 Zwijnaarde; Belgium,Belgium
11.5713346,49.9456399,2,95440 Bayreuth; Germany,Germany
-3.1855682,55.9205068,9,Edinburgh EH9 3HJ; UK,United Kingdom
10.2030118,56.1681384,3,Aarhus University; DK-8000 Denmark,Denmark
-1.6063007,54.9771059,2,Newcastle upon Tyne NE1 8ST; UK,United Kingdom
-0.4181907,51.1689044,6,Surrey RH5 6NT; UK,United Kingdom
-0.1772696,51.4981213,2,London SW7 2AZ; UK,United Kingdom
2.3518339,48.8434912,1,F-75005 Paris; France,France
-5.8545077,43.3636198,7,E-33004 Oviedo; Spain,Spain
-16.3375493,28.4894267,2,E-38206 Tenerife; Spain,Spain
-5.8525291,43.3547028,2,E-33007 Oviedo; Spain,Spain
-17.7902707,28.6303668,1,E-38712 La Palma; Spain,Spain
-5.6195112,43.5428512,1,E-33203 Oviedo; Spain,Spain
-3.68134,40.4351996,2,E-28006 Madrid; Spain,Spain
10.2027261,56.1460465,2,DK 8000 Aarhus C; Denmark,Denmark
136.9653743,35.1378458,1,Aichi 466-8666; Japan,Japan
120.086473,30.3088169,2,310058; People's Republic of China,China
21.0250774,52.2226753,59,00-478 Warszawa; Poland,Poland
127.3845475,36.3504119,6,Daejon 34055; Republic of Korea,South Korea
116.3288577,40.0006896,1,Beijing 100084; People's Republic of China,China
-79.1880063,43.781841,5,M1C 1A4; Canada,Canada
-91.17999999999999,30.41,8,Baton Rouge; LA 70803 USA,United States
-122.0525,37.41752,11,CA 94035-0001; USA,United States
2.3365123,48.8358925,1,LESIA - Paris Observatory - PSL,France
7.6889006,45.06942799999999,1,Unversita di Torino,Italy
-86.1349019,40.2671941,2,IN 46566; USA,United States
98.9024603,18.9028017,1,Chiang Mai 50180; Thailand,Thailand
98.93557369999999,18.7952345,4,Chiang Mai 50200; Thailand,Thailand
18.964741,47.500313,9,Konkoly Thege M. út 15-17; Hungary,Hungary
18.0685808,59.32932349999999,5,Stockholm; Sweden,Sweden
-111.9311925,33.418294,3,85287; USA,United States
4.956958,52.355847,2,XH Amsterdam; The Netherlands,Netherlands
-76.944141,38.9908487,18,MD 20742; USA,United States
-71.13891009999999,42.3803274,43,Cambridge; MA 02138 USA,United States
-96.7386946,32.97602940000001,1,TX 75080; USA,United States
-77.0622028,38.9656971,20,DC 20015; USA,United States
22.9307881,54.1115218,1,Suwałki; Poland,Poland
30.3350986,59.9342802,3,Saint Petersburg; Russia,Russia
54.4345558,24.5238948,1,PO Box 129188 Abu Dhabi; UAE,United Arab Emirates
-0.630386,44.80583,1,F-33165 Pessac; France,France
-46.63330939999999,-23.5505199,2,CEP 12.516-410 São Paulo; Brazil,Brazil
118.7910429,32.05614,1,Nanjing 210096; China,China
-75.3353875,40.0468052,56,PA 19085; USA,United States
-118.8741429,34.2024698,2,91360; USA,United States
-72.9637728,41.3266814,30,CT 06515; USA,United States
12.581413,55.68835800000001,2,DK-1350 Copenhagen K.; Denmark,Denmark
-118.125269,34.1376576,6,California Institute of Technology; USA,United States
-73.61375919999999,45.5056156,1,Université de Montréal; Canada,Canada
-83.624201,41.6735366,1,43606; USA,United States
-16.3375493,28.4894267,56,E-38206 La Laguna; Spain,Spain
-16.3007626,28.4868465,1,38205 La Laguna; Spain,Spain
30.3350986,59.9342802,19,St. Petersburg; Russia,Russia
-2.2426305,53.4807593,2,Manchester; UK,United Kingdom
121.3009798,24.9936281,6,Taoyuan city; Taiwan,Taiwan
-116.6229069,31.8687051,1,22800; México,Mexico
-99.99619469999999,25.592172,4,N.L.; México,Mexico
-2.2335952,53.46668099999999,1,Manchester M13 9P; UK,United Kingdom
19.8229172,50.0419457,11,Kraków 30-244; Poland,Poland
19.9042597,50.0765798,5,Kraków 30-084; Poland,Poland
22.2666302,60.4518126,7,FI-21500 Turku; Finland,Finland
12.385052,43.1136937,1,I-06123 Perugia; Italy,Italy
72.8615426,19.0717612,1,Mumbai 400098; India,India
29.8091335,59.86069009999999,1,198504 St. Petersburg; Russia,Russia
-83.6694169,42.3053253,2,Ann Arbor MI 48109; USA,United States
135.6498189,34.5505771,14,Osaka 582-8582; Japan,Japan
-3.9521382,40.4606098,1,E-28692 Madrid; Spain,Spain
-2.968242,53.4058797,1,Brownlow Hill L3 5RF; UK,United Kingdom
26.4105364,40.10037030000001,2,TR-17100 Canakkale; Turkey,Turkey
71.1923805,22.258652,1,Gujrat; India,India
30.5234,50.4501,8,Kyiv; Ukraine,Ukraine
-0.3760125,39.4690149,1,E-46002 Valencia; Spain,Spain
-1.4679772,51.5932983,1,Wantage OX12 9TX; UK,United Kingdom
24.029717,49.839683,1,79005 Lviv; Ukraine,Ukraine
2.1734035,41.3850639,1,E-0875 Barcelona; Spain,Spain
-3.7873268,37.7660232,1,E-23001 Jaen; Spain,Spain
41.2658236,39.9054993,1,TR-25240 Erzurum; Turkey,Turkey
-2.6983868,43.2204286,1,Bizkaia; Spain,Spain
-6.3598367,43.5328129,1,E-33780 Valdés; Spain,Spain
-3.667394199999999,40.3681942,1,E-28053 Madrid; Spain,Spain
79.4647633,29.3764941,7,Nainital 263002; India,India
-61.222503,10.691803,3,Trinidad; West Indies,Trinidad and Tobago
49.1214925,55.7909325,1,Kazan 420008; Russia,Russia
-1.1310176,51.2408793,1,Hampshire RG22 4PP; UK,United Kingdom
140.8412111,38.2591364,8,Sendai 980-8578; Japan,Japan
38.2772592,37.76365,2,TR-02040 Adiyaman; Turkey,Turkey
71.1923805,22.258652,1,Gujarat; India,India
127.3747104,36.3981875,1,Daejeon 305-348; Republic of Korea,South Korea
-0.7129006999999999,38.2801532,1,E-03206 Elche; Spain,Spain
11.5632868,50.9044763,18,D-07745 Jena; Germany,Germany
-107.9057813,32.8877465,1,NM 88041; USA,United States
12.7152505,41.8181871,2,I-00040 Monteporzio Catone; Italy,Italy
-1.8733631,52.5455901,3,Birmingham B44 0QE; UK,United Kingdom
77.6212584,12.9263583,2,Bangalore 560 034; India,India
0.7610053,42.0007934,1,E-25691 Ager; Spain,Spain
-5.9488975,37.3747865,1,E-41006 Sevilla; Spain,Spain
14.4378005,50.0755381,1,Prague 16627; Czech Republic,Czechia
1.2444909,41.1188827,1,Tarragona; Spain,Spain
-98.19669429999999,19.0444606,2,Puebla 72000; México,Mexico
-80.3770443,25.7538975,1,FL 33199; USA,United States
7.8891785,48.0033988,3,D-79104 Freiburg; Germany,Germany
15.529418,51.9419094,2,PL-65-516 Zielona Góra; Poland,Poland
16.6068371,49.1950602,3,611 37 Brno; Czech Republic,Czechia
-77.0172233,38.826107,1,DC 20375; USA,United States
87.5395855,42.5246357,5,Xinjiang; People's Republic of China,China
-0.3536548,39.4729669,2,E-46021 Valencia; Spain,Spain
-86.80411509999999,36.1489935,1,Nashville TN 37235; USA,United States
14.4896074,46.0363798,2,SI-1000 Ljubljana; Slovenia,Slovenia
-75.3995089,40.0600713,1,PA 19087; USA,United States
17.085321,51.10901089999999,22,PL-51-622 Wrocław; Poland,Poland
-118.8741429,34.2024698,1,CA 91360; USA,United States
145.1348243,-37.9104511,1,Clayton VIC 3800; Australia,Australia
151.134494,-33.7934648,6,NSW 2113; Australia,Australia
14.4896074,46.0363798,11,1000 Ljubljana; Slovenia,Slovenia
-78.510016,38.0340277,26,VA 22904-4325; USA,United States
115.8107681,-31.9820615,2,WA 6009; Australia,Australia
11.50962,45.8758852,1,36012 Asiago; Italy,Italy
146.921099,-31.2532183,1,NSW 2751; Australia,Australia
15.970761,45.8348464,7,10000 Zagreb; Croatia,Croatia
2.2265084,48.80556929999999,11,F-92195 Meudon Cedex; France,France
9.963474999999999,51.56655319999999,2,D-37077Göttingen; Germany,Germany
-118.1247032,34.1378866,1,CA91125; USA,United States
-70.6692655,-33.4488897,3,Santiago 7820436; Chile,Chile
-77.8599084,40.7982133,5,The Pennsylvania State Univ. (United States),United States
-97.4457137,35.2058936,1,The Univ. of Oklahoma (United States),United States
-76.987228,42.8572633,1,Hobart and William Smith Colleges (United States),United States
-122.3035199,47.65533509999999,1,Univ. of Washington (United States),United States
-117.8442962,33.6404952,1,Univ. of California; Irvine (United States),United States
16.3191645,48.2358641,18,1180 Vienna; Austria,Austria
-110.9488008,32.2332841,6,85721; USA,United States
13.7768182,45.6495264,5,Trieste; Italy,Italy
-3.1855682,55.9205068,10,EH93HJ; UK,United Kingdom
-115.2837585,30.8406338,4,B.C.; México,Mexico
10.7522454,59.9138688,1,Oslo; Norway,Norway
145.1348243,-37.9104511,8,3800; Australia,Australia
101.3431058,24.4752847,3,Yunnan Province; PR China,China
2.0864011,41.5037176,12,Bellaterra; Spain,Spain
10.203921,56.162939,20,Aarhus; Denmark,Denmark
11.619787,44.8381237,1,Ferrara; Italy,Italy
25.2796514,54.6871555,4,Vilnius; Lithuania,Lithuania
77.62210910000002,12.9261382,1,560034; India,India
60.6057025,56.83892609999999,2,Yekaterinburg; Russia,Russia
30.3283597,59.75553369999999,2,196140; Russia,Russia
72.5641077,23.0314594,1,380009; India,India
-84.2883519,30.4407853,2,32306-4350; USA,United States
-117.0125641,46.7258512,5,83844; USA,United States
-1.5614704,52.3792525,1,7AL; UK,United Kingdom
11.764458,55.614538,1,Tølløse; Denmark,Denmark
72.5641077,23.0314594,10,Ahmedabad 380009; India,India
-118.3754131,33.865913,1,CA 90278; USA,United States
-84.39999999999999,33.75,29,GA 30302-5060; USA,United States
-111.9403254,33.4366655,5,AZ 85281; USA,United States
4.8945398,52.3666969,11,1090 GE Amsterdam; The Netherlands,Netherlands
8.7202574,49.3928952,2,D-69117; Germany,Germany
-72.9310217,41.3064267,30,CT 06520; USA,United States
4.4970097,52.1601144,1,2300RA Leiden; The Netherlands,Netherlands
12.6331035,41.8620235,4,I-00133 Roma; Italy,Italy
-35.207484,-5.7882761,1,IFRN; Brazil,Brazil
19.040235,47.497912,7,1121 Budapest; Hungary,Hungary
-71.3646236,42.6460285,1,MA 01854; USA,United States
-8.629105299999999,41.1579438,3,PT-4169-007 Porto; Portugal,Portugal
77.5671423,13.0218597,1,Bangalore -- 560012; India,India
118.805374,32.0580882,5,Chinese Academy of Sciences; Nanjing 210008,China
-1.5607479,52.3859963,4,Coventry CV4 7HS; UK,United Kingdom
-1.1244254,52.6223041,24,Leicester LE1 7RH; UK,United Kingdom
-60.62327200000001,-32.9699699,4,Consejo Nacional de Investigaciones Científicas y Técnicas (CONICET); Argentina,Argentina
-64.1887761,-31.42008329999999,2,Córdoba X5000GBR; Argentina,Argentina
-1.4862284,53.3808721,4,S3 7RH; United Kingdom,United Kingdom
-97.9647269,29.5688411,1,Seguin; TX 78155,United States
0.0951918,52.21409269999999,1,CB3 0HA; United Kingdom,United Kingdom
10.2027261,56.1460465,5,DK-8000 Aarhus; Denmark,Denmark
122.0457994,37.5142399,1,Weihai 264209; China,China
121.4405536,31.196245,1,Shanghai 200030; China,China
-58.363507,-34.639533,1,1428; Argentina,Argentina
8.5469023,47.3982696,5,CH-8057 Zürich; Switzerland,Switzerland
-37.3428162,-5.191082499999999,2,59610-090 Mossoró; Brazil,Brazil
27.2058765,38.4502845,3,Bornova; İzmir 35100 Turkey,Turkey
1.4531355,43.5611027,2,F-31400Toulouse; France,France
116.3700367,39.9586544,1,Beijing100875; P. R. China,China
5.5765443,50.6465117,1,B-4000Liège; Belgium,Belgium
-93.2806806,37.2005546,6,Missouri StateUniversity; United States of America,United States
-6.652792,54.3502798,2,Armagh; Ireland,United Kingdom
-77.67434449999999,43.0845894,2,Rochester Institute of Technology (United States),United States
-122.0644229,37.4088478,1,NASA Ames Research Ctr. (United States),United States
-79.39565640000001,43.6628917,1,Univ. of Toronto (Canada),Canada
8.547669899999999,47.376313,2,ETH Zurich (Switzerland),Switzerland
149.118527,-35.2776999,1,The Australian National Univ. (Australia),Australia
5.559063999999999,50.5830803,2,Liège Univ. (Belgium),Belgium
7.438119,46.9504896,1,Univ. Bern (Switzerland),Switzerland
-6.6485739,54.3518482,3,Armagh Observatory and Planetarium,United Kingdom
18.9646829,47.5003349,1,Konkoly Thege ut. 13-15; Hungary,Hungary
-8.4756035,51.8985143,5,Cork; Ireland,Ireland
-118.1247032,34.1378866,31,91125; USA,United States
-3.5838002,37.15490339999999,4,E-18008 Granada; Spain,Spain
-2.4637136,36.834047,1,E-4004 Almería; Spain,Spain
10.2260726,53.489276,1,D-21029 Hamburg; Germany,Germany
-3.7384311,40.4473608,3,E-28040 Madrid; Spain,Spain
-79.49499449999999,43.7728399,3,ON M3J 1P3; Canada,Canada
9.0615313,48.53924809999999,6,D-72076 Tübingen; Germany,Germany
139.53767,35.675447,2,National Astronomical Observatory of Japan; Japan,Japan
35.21371,31.768319,4,Jerusalem 91904; Israel,Israel
-43.4193916,-22.8098494,1,Nilópolis—RJ; Brazil,Brazil
-76.8524334,38.99554120000001,1,NASA Goddard Space Flight Center; USA,United States
-122.169719,37.4274745,1,Stanford University; USA,United States
-80.4326521,25.9839048,1,Miramar; FL 33029,United States
-105.1317431,39.854992,1,Arvada; CO 80005,United States
-1.7075198,48.11734209999999,1,F-35000; France,France
-82.7342919,35.2334472,1,Brevard; NC 28712,United States
-82.8212432,35.143721,1,Rosman; NC 28772,United States
5.1962097,51.2213789,1,Mol 2400; Belgium,Belgium
18.4721169,-33.9375585,1,Cape 7935; South Africa,South Africa
10.4016888,43.7228386,8,Pisa; Italy,Italy
140.8412111,38.2591364,7,Miyagi 980-8578; Japan,Japan
-0.527552,44.8305549,3,F-33271 Floirac Cedex; France,France
-70.6692655,-33.4488897,6,7591245 Santiago; Chile,Chile
20.1476209,46.2473322,3,University of Szeged; Hungary,Hungary
14.7734546,49.930923,1,251 65 Ondřejov; Czech Republic,Czechia
-17.7579214,28.6494517,1,38712 -- Breña Baja; Spain,Spain
1.39592,48.489577,3,Bailleau l'Evéque; France,France
11.2580472,43.7437096,6,50125 Firenze; Italy,Italy
11.9466951,57.40058599999999,2,439 92 Onsala; Sweden,Sweden
11.7158452,50.9910636,5,Tautenberg; Germany,Germany
8.541694,47.3768866,4,Zurich; Switzerland,Switzerland
-95.09110620000001,29.5642078,1,77058; USA,United States
172.6362254,-43.5320544,2,Christchurch 8020; New Zealand,New Zealand
127.5183,37.41379999999999,2,Kyeonggi 17104; Republic of Korea,South Korea
127.3845475,36.3504119,8,Daejeon 34113; Republic of Korea,South Korea
-119.4179324,36.778261,4,CA 9112; USA,United States
-80.621591,28.0600145,13,FL 32901; USA,United States
-101.8820434,33.5886439,2,TX 79409; USA,United States
-71.82717389999999,45.3667531,4,J1M 1Z7; Canada,Canada
7.5723451,47.5233885,2,Bottmingen; Switzerland,Switzerland
10.845346,51.0109892,1,Thuringia; Germany,Germany
13.7372621,51.0504088,1,Dresden; Germany,Germany
-75.75023139999999,39.6673566,3,19716; USA,United States
12.7152505,41.8181871,5,Monteporzio Catone (RM); Italy,Italy
4.8945398,52.3666969,1,NL-1090-GE Amsterdam; The Netherlands,Netherlands
2.1131154,41.39438190000001,3,E-08034 Barcelona; Spain,Spain
2.1757278,41.3919671,1,E-08010 Barcelona; Spain,Spain
116.4073963,39.90419989999999,4,Beijing; People's Republic of China,China
51.3889736,35.6891975,2,Tehran; Iran,Iran
116.3700367,39.9586544,2,Beijng 100875; China,China
116.316292,39.991698,22,Beijing 100871; China,China
-83.6694169,42.3053253,1,MI 48109-1107; USA,United States
5.865272,51.81670099999999,5,NL-6500 GL Nijmegen; The Netherlands,Netherlands
4.9571436,52.3563015,2,NL-1098 XH Amsterdam; The Netherlands,Netherlands
6.3960309,52.8133579,1,NL-7991 PD Dwingeloo; The Netherlands,Netherlands
106.6720665,26.4292187,3,Guiyang 550025; PR China,China
100.155374,25.6937961,1,Dali 671003; China,China
118.8358867,32.0891328,3,Nanjing 210042; PR China,China
116.4541469,40.0192499,1,Beijing 100012; PR China,China
30.6545022,-0.6071596,2,Mbarara; Uganda,Uganda
27.0931653,-26.690468,1,North-West University; South Africa,South Africa
30.926812,2.996229,1,P.O. Box 725; Arua-Uganda,Uganda
-74.0059728,40.7127753,1,New York NY; USA,United States
15.9819189,45.8150108,3,Zagreb; Croatia,Croatia
3.8712327,43.6328862,1,Montpellier cedex 5; France,France
92.8932476,56.01528339999999,2,Krasnoyarsk; Russian Federation,Russia
-82.4563199,27.926156,1,33606; USA,United States
13.6986639,42.6611431,2,64100 Teramo; Italy,Italy
13.6986639,42.6611431,3,Teramo; Italy,Italy
-119.8696691,34.4301656,80,CA 93117; USA,United States
-1.1831486,51.7964955,8,Oxford OX3 9UU; UK,United Kingdom
6.1451157,46.199444,1,Observatoire Astronomique de l'Université de Genève; Switzerland,Switzerland
-118.6848112,34.1307949,1,CA 91302; USA,United States
78.5431066,17.4176446,4,Hyderabad 500007; India,India
127.3845475,36.3504119,1,Daejeon 34055; Republic of Korea,South Korea
-105.248737,39.9799992,1,CO 80305; USA,United States
-3.533899,50.718412,2,Exeter; UK,United Kingdom
-73.9976946,40.7250632,1,NY 10012; USA,United States
-76.9425543,38.9869183,4,University of Maryland College Park; USA,United States
-122.0751549,37.386812,1,CA 94041; USA,United States
-110.8850949,32.2107257,1,AZ 85711; USA,United States
-95.09110620000001,29.5642078,2,TX 77058; USA,United States
-90.3418927,38.9610901,2,IL 62028; USA,United States
-111.7614661,35.3605853,49,AZ 86001; USA,United States
-118.4046264,33.9150066,5,CA 90245; USA,United States
77.2090212,28.6139391,1,New Delhi; India,India
77.19158399999999,28.6785828,5,Delhi 110007; India,India
79.4647633,29.3764941,2,Nainital-263002; India,India
9.2273552,45.5000627,2,I-20127 Bologna; Italy,Italy
15.4597886,47.03382389999999,1,A-8041 Graz; Austria,Austria
7.769664400000001,45.0445643,1,10025-Turin; Italy,Italy
146.921099,-31.2532183,5,NSW; Australia,Australia
115.9645378,-32.0121014,1,WA 6107; Australia,Australia
37.3454651,55.8065438,1,Moscow 143401; Russia,Russia
2.0910377,41.49733519999999,1,E-08193 Cerdanyola del Valles; Spain,Spain
13.6986639,42.6611431,12,I-64100 Teramo; Italy,Italy
-1.2590037,51.75950580000001,3,Oxford OX1 3NP; UK,United Kingdom
-117.0125641,46.7258512,5,Idaho 83844-0903; USA,United States
-73.5491361,52.9399159,1,Quebec; Canada,Canada
102.742114,25.040516,3,650216; PR China,China
114.5249197,36.59258270000001,1,056005; PR China,China
116.4541469,40.0192499,1,100012; PR China,China
104.7785802,29.3390917,1,643000; PR China,China
13.393389,38.0824516,10,I-90124 Palermo; Italy,Italy
9.1326716,39.2825701,1,Via della Scienza 5—I-09047 Selargius (CA); Italy,Italy
-74.4056612,40.0583238,4,NJ; USA,United States
115.8604572,-31.9505269,4,Perth; Australia,Australia
19.040235,47.497912,3,1451 Budapest; Hungary,Hungary
139.6831373,35.6042164,1,152-8550; Japan,Japan
-92.73816719999999,41.7679201,4,IA 50112; USA,United States
-97.286868,31.5348439,1,TX 76712; USA,United States
-157.8152491,21.3175493,1,Hi 96822; USA,United States
-123.2611098,49.2684344,13,BC V6T 1Z1; Canada,Canada
54.4345558,24.5238948,1,P.O. Box 129188 Abu Dhabi; UAE,United Arab Emirates
174.776236,-41.2864603,8,Wellington; New Zealand,New Zealand
35.243322,38.963745,1,TR; Turkey,Turkey
-91.17999999999999,30.41,3,LA 70803-4001; USA,United States
-1.1244254,52.6223041,7,LE1 7RH; UK,United Kingdom
-70.5058683,-33.3749808,1,7591538 Santiago; Chile,Chile
-119.7289889,34.4402467,3,CA 93105; USA,United States
-77.3209555,38.8454321,2,22030 Virginia; USA,United States
-97.54638849999999,31.6559422,3,76689 TX; USA,United States
-122.2143323,37.8015517,5,CA 94602; USA,United States
-97.4408397,31.1990792,1,TX 76504; USA,United States
18.9930926,69.6857553,1,Tromsø 9019; Norway,Norway
133.5823171,34.564242,2,719-0232 Okayama; Japan,Japan
4.4564808,52.16850770000001,1,NL-2333CA Leiden; The Netherlands,Netherlands
32.8546629,39.90785109999999,8,Tandoğan 06100 Ankara; Turkey,Turkey
1.4531355,43.5611027,1,F-31400; France,France
-75.7544793,41.5570649,2,18440; USA,United States
102.7186974,25.0266546,2,Kunming 650011; China,China
18.4691492,-33.9353255,1,Cape Town 7925; South Africa,South Africa
-6.2542734,53.3398938,6,Dublin 2; Ireland,Ireland
-95.712891,37.09024,13,IN; USA,United States
2.331433,48.791855,1,Cachan; France,France
5.715193999999999,43.910292,17,Saint Michel l'Observatoire; France,France
4.3517211,50.8503463,7,Brussels; Belgium,Belgium
-91.17999999999999,30.41,1,70803; USA,United States
-79.1880063,43.781841,6,ON M1C 1A4; Canada,Canada
-118.1713944,34.2013081,2,CA 91109-8099; USA,United States
-78.5887951,38.0335948,1,VA 22903-2475; USA,United States
-118.1268976,34.1456654,1,Pasadena; CA 91106 USA,United States
-2.2335952,53.46668099999999,1,M13 9PL; UK,United Kingdom
151.9484428,-27.5601744,1,c/o Australian Broadcasting Corporation; Australia,Australia
-111.9484298,41.1952366,1,UT 84408-2508; USA,United States
-2.7967214,56.3397753,4,St Andrews KY16922; UK,United Kingdom
-117.2338066,32.88435520000001,6,CA 92093-0424; USA,United States
-75.632447,38.4001474,1,MD 21801-6860; USA,United States
-88.79570799999999,33.45622,5,MS 39762; USA,United States
116.222804,39.911563,6,100049; People's Republic of China,China
87.5675825,43.8661526,4,Xinjiang 830011; People's Republic of China,China
118.7852345,32.0593072,6,Nanjing 210008; People's Republic of China,China
122.0457994,37.5142399,3,Weihai 264209; People's Republic of China,China
144.7851531,-37.4713077,6,Victoria; Australia,Australia
151.1126498,-33.77382370000001,7,NSW 2109; Australia,Australia
149.0525253,-35.3410156,2,Weston Creek; ACT 2611 Australia,Australia
121.5654177,25.0329694,8,Taipei 10617; Taiwan,Taiwan
26.9361286,43.2712398,6,Shumen; Bulgaria,Bulgaria
102.742114,25.040516,1,Kunming 650216; People's Republic of China,China
-77.81707209999999,40.8093423,1,PA 16851; USA,United States
-98.2062727,19.0414398,4,Puebla; México,Mexico
-9.1384131,38.7353493,2,1049-001 Lisboa; Portugal,Portugal
-95.4306141,29.7183467,2,TX 77005; USA,United States
7.57879,47.52087239999999,1,CH-4103 Bottmingen; Switzerland,Switzerland
34.3233527,61.819856,1,185031 Petrozavodsk; Russia,Russia
148.7831534,-35.4477412,3,2611; Australia,Australia
11.6219985,50.9959499,1,D-07778; Germany,Germany
16.6030556,47.2577607,1,Szent Imre herceg útja 112; Hungary,Hungary
26.9088394,43.2496347,26,9700 Shumen; Bulgaria,Bulgaria
23.38832,42.65351,3,72 Tsarigradsko shossee; 1784 Sofia,Bulgaria
-8.6393579,41.1502012,1,PT-4150-762 Porto; Portugal,Portugal
7.8891785,48.0033988,9,79104 Freiburg; Germany,Germany
-81.7622951,26.4588273,1,Fort Myers; FL 33965 USA,United States
29.0721748,41.0635527,1,34684 Istanbul; Turkey,Turkey
-98.49522280000001,29.4595699,1,TX 78212-7200; USA,United States
-73.96243270000001,40.8138912,4,New York 10027; USA,United States
-122.273042,37.8715226,1,Berkeley 94270; USA,United States
-72.65313139999999,41.558762,3,Middletown 06459; USA,United States
17.6263677,59.8489749,1,E-752 36 Uppsala; Sweden,Sweden
-71.0898892,42.339904,1,MA 02115; USA,United States
-93.2885455,44.9061358,1,MN 55419; USA,United States
13.339803,52.45552929999999,6,D-12169 Berlin; Germany,Germany
-111.6862412,33.3410342,2,Private Address; USA,United States
-71.13891009999999,42.3803274,77,Massachusetts 02138; USA,United States
-79.4215085,43.82781689999999,2,Ontario L3T 3R1; Canada,Canada
-122.0581762,36.9923139,1,95064; USA,United States
-84.3883717,33.755711,1,30303; USA,United States
-93.1378173,44.4695372,1,MN 55057; USA,United States
127.3845475,36.3504119,6,Daejon 34055; Korea,South Korea
174.7633315,-36.8484597,4,Auckland 0745; New Zealand,New Zealand
120.086473,30.3088169,2,310058; China,China
12.581413,55.68835800000001,3,DK-1350—Copenhagen K; Denmark,Denmark
127.5183,37.41379999999999,2,Kyeonggi 17104; Korea,South Korea
14.7965608,40.7731935,3,I-84084 Fisciano (SA); Italy,Italy
136.9668738,35.1539547,24,Nagoya 464-8601; Japan,Japan
174.7633315,-36.8484597,32,Auckland; New Zealand,New Zealand
138.1950371,36.6485258,5,Nagano 381-8550; Japan,Japan
139.8097126,35.7344686,5,Tokyo 116-8523; Japan,Japan
139.3953333,35.5584076,4,Kanagawa 252-5210; Japan,Japan
170.4771212,-44.0046736,4,Lake Tekapo 8770; New Zealand,New Zealand
135.7573428,35.0696899,4,603-8555 Kyoto; Japan,Japan
116.3288577,40.0006896,2,Beijing 100084; China,China
8.6844799,49.4135138,13,D-69120 Heidelberg; Germany,Germany
-3.0180861,53.3987888,3,Liverpool CH41 1LD; UK,United Kingdom
9.9819779,53.5688101,1,20146 Hamburg; Germany,Germany
18.0685808,59.32932349999999,4,SE-106 91 Stockholm; Sweden,Sweden
51.3889736,35.6891975,1,PO Box 11155-9161 Tehran; Iran,Iran
51.66596560000001,32.6538966,1,841568311 Isfahan; Iran,Iran
-73.57764320000001,45.5061524,1,QC H3A 0G4; Canada,Canada
25.4650772,65.0120888,2,Oulu; Finland,Finland
18.5700636,-33.9142871,1,Cape; South Africa,South Africa
-87.6759889,42.0541119,40,IL 60208; USA,United States
-80.1428584,41.6151426,2,PA 16335; USA,United States
-115.1381487,36.1451645,3,NV 89154-4002; USA,United States
-105.24,39.98999999999999,69,CO 80307; USA,United States
-77.1945247,41.2033216,11,PA; USA,United States
-1.470085,53.38112899999999,3,Sheffield; UK,United Kingdom
-73.8279381,42.6907733,4,NY 12222; USA,United States
21.0250774,52.2226753,1,00-478 Warsaw; Poland,Poland
-7.981084500000001,31.6294723,2,Marrakesh; Morocco,Morocco
-71.4418101,42.4836453,2,MA 01720; USA,United States
22.2851138,60.4562974,1,University of Turku; Finland,Finland
7.842104299999999,47.9990077,11,Freiburg; Germany,Germany
-79.52910399999999,43.648611,3,The Royal Astronomical Society of Canada; Canada,Canada
-85.50972259999999,42.9219281,4,MI 49546; USA,United States
-71.13940889999999,42.3875111,26,American Association of Variable Star Observers (AAVSO),United States
-111.9311925,33.418294,2,AZ 85287-1404; USA,United States
20.2880776,49.1519604,3,Slovak Academy of Sciences; The Slovak Republic,Slovakia
5.559063999999999,50.5830803,4,Université de Liège; Belgium,Belgium
-77.3209555,38.8454321,4,VA 22030; USA,United States
-0.8877756,41.0523775,1,Blesa; Spain,Spain
-80.0758425,41.1926318,3,PA 16127; USA,United States
-2.9687985,53.4055957,10,L3 5RF; UK,United Kingdom
-120.260784,37.942845,2,Sierra Stars Observatory Network; Canada,United States
-93.32378240000001,44.9191183,1,MN 55410; USA,United States
-5.9844589,37.3890924,2,Sevilla; Spain,Spain
-6.9706535,38.8794495,1,Badajoz; Spain,Spain
0.0951918,52.21409269999999,11,CB3 0HA; UK,United Kingdom
-7.4284755,39.2967086,1,Atalaia Group and CROW Observatory Portalegre; Portugal,Portugal
11.6532477,48.2488721,12,Garching bei München; Germany,Germany
-123.3647699,48.425114,1,V8W 3P2; Canada,Canada
-105.6412527,40.0118121,1,CO 80466; USA,United States
12.5727765,55.7085326,2,DK-2100 Copenhagen Ø; Denmark,Denmark
60.6161195,56.8404249,1,Ural Federal University; Russia,Russia
-74.0104223,40.7082913,1,Amateur Astronomer; USA,United States
149.0684588,-31.2749453,1,Siding Spring; Australia,Australia
7.752111299999999,48.5734053,5,Strasbourg; France,France
7.019019999999999,43.57655099999999,1,Le Cannet; France,France
-93.64803069999999,42.0288663,52,IA 50011; USA,United States
-77.03813389999999,38.9030183,1,Society of Astronomical Sciences; USA,United States
2.0910377,41.49733519999999,2,E-08193 Barcelona; Spain,Spain
-8.538611099999999,52.3030556,1,Ballyhoura Observatory; Ireland,Ireland
-73.163743,44.4959801,1,VT 05439; USA,United States
35.0195184,32.7614296,1,Haifa 31905; Israel,Israel
-77.86531260000001,40.8147955,1,University Park; PA 16801 USA,United States
-85.0441304,41.35481009999999,1,46706; USA,United States
-119.3947135,37.0795598,1,CA 93602; USA,United States
24.9663157,60.5526492,1,Jokela; Finland,Finland
16.6218441,47.2306851,3,Szombathely; Hungary,Hungary
20.1488574,46.2475713,1,Dom ter 9; Hungary,Hungary
18.7898902,49.4406571,1,Kysuce Observatory; Slovak Republic,Slovakia
4.7002953,50.87795449999999,2,University of Leuven; Belgium,Belgium
13.34909,52.45863,1,Bundesdeutsche Arbeitsgemeinschaft für veränderliche Sterne; Germany,Germany
35.21371,31.768319,1,Jerusalem; Israel,Israel
14.7734546,49.930923,1,251 65 Ondřejov; The Czech Republic,Czechia
-115.2837585,30.8406338,10,BC; Mexico,Mexico
-73.96243270000001,40.8138912,2,NY 10027; New York,United States
-0.4431618,39.5037093,1,E-46980 Paterna (València); Spain,Spain
-0.4101619,39.5090031,1,E-46100 Burjassot (València); Spain,Spain
-0.4643906,39.5424148,2,E-46980 Valencia; Spain,Spain
37.5778887,55.7107092,1,119991 Moscow; Russia,Russia
-111.8419536,40.7652201,2,Salt Lake City; UT 84112,United States
2.1568488,48.7275193,1,Laboratoire AIM Paris-Saclay; CEA/DRF—CNRS—Université Paris Diderot,France
-58.44227009999999,-34.5419202,1,Universidad de Buenos Aires; Facultad de Ciencias Exactas y Naturales,Argentina
-8.638482999999999,41.150667,2,Universidade do Porto; CAUP,Portugal
-122.3035199,47.65533509999999,1,University of Washington,United States
-79.0469134,35.9049122,1,The University of North Carolina at Chapel Hill,United States
-79.39565640000001,43.6628917,2,University of Toronto (Canada),Canada
-87.67526699999999,42.0564594,3,Northwestern University,United States
-118.125269,34.1376576,4,California Institute of Technology,United States
-89.4124875,43.076592,1,The University of Wisconsin - Madison,United States
-71.1053991,42.3504997,2,Boston University,United States
-83.6140701,41.6580307,1,The University of Toledo,United States
7.861283899999999,47.9985311,1,Kiepenheuer-Institut für Sonnenphysik,Germany
-156.3081217,20.7278194,1,96790; USA,United States
5.715193999999999,43.910292,14,Observatoire; France,France
0.121817,52.205337,1,HA Cambridge; UK,United Kingdom
-105.2077798,40.0005378,3,80303; USA,United States
-77.0622028,38.9656971,5,20015-1305; USA,United States
-118.1386005,34.1427587,6,91101; USA,United States
-74.651754,40.3815302,1,08540; USA,United States
151.9533185,-27.5564884,1,4350; Australia,Australia
20.1488574,46.2475713,5,Dóm tér 9.; Hungary,Hungary
25.1442126,35.3387352,1,Heraklion GR-71003; Greece,Greece
11.925783,57.396182,2,Onsala Space Observatory SE-439 92 Onsala; Sweden,Sweden
151.9506696,-27.5598212,1,Computational Science and Engineering Research Centre; Toowoomba QLD Australia,Australia
127.3845475,36.3504119,1,Daejeon (34113); Korea,South Korea
127.4890319,36.6424341,1,Cheongju (28644); Korea,South Korea
118.7852345,32.0593072,11,Nanjing 210008; China,China
12.581413,55.68835800000001,9,DK-1350 Copenhagen K; Denmark,Denmark
-3.1855682,55.9205068,3,Edinburgh EH93HJ; UK,United Kingdom
-157.8152491,21.3175493,6,Hawaii 96822; USA,United States
-122.0581762,36.9923139,13,California 95064; USA,United States
10.2027261,56.1460465,4,DK-8000; Denmark,Denmark
27.2058765,38.4502845,4,35100 Izmir; Turkey,Turkey
116.4541469,40.0192499,8,100012; China,China
116.3700367,39.9586544,5,100875; China,China
113.5853182,22.3509937,1,519082; P. R. China,China
-97.9157099,29.5068941,1,TX 78155; USA,United States
-51.2176986,-30.0346316,10,RS; Brazil,Brazil
14.7734546,49.930923,1,CZ-251 65 Ondr˘ejov; Czech Republic,Czechia
-122.4863492,37.7181398,20,CA 94132; USA,United States
-83.6375032,41.3780983,3,Bowling Green; OH 43403,United States
0.1149085,52.2042666,1,Cambridge CB3 OHA; UK,United Kingdom
-101.8820434,33.5886439,1,Texas 79409-1051; USA,United States
4.4970097,52.1601144,1,Leiden 2300RA; The Netherlands,Netherlands
5.865272,51.81670099999999,17,6500 GL Nijmegen; The Netherlands,Netherlands
78.3289668,17.4577604,1,Telangana 500046; India,India
-95.9345034,41.2565369,1,Omaha; USA,United States
84.87451720000001,45.5895891,3,834000 Karamay; China,China
104.7785802,29.3390917,1,643000 Zigong; China,China
102.742114,25.040516,1,650216 Kunming; China,China
115.9645378,-32.0121014,2,Western Australia 6107; Australia,Australia
-99.9018131,31.9685988,1,TX 78812; USA,United States
-16.3158443,28.4810941,1,Universidad de La Laguna; Spain,Spain
18.4721169,-33.9375585,2,7935; South Africa,South Africa
136.9668738,35.1539547,10,Aichi 464-8601; Japan,Japan
170.4771212,-44.0046736,1,Lake Tekapo 7945; New Zealand,New Zealand
135.7573428,35.0696899,4,Kyoto 603-8555; Japan,Japan
121.5654177,25.0329694,1,Taipei 11529; Taiwan,Taiwan
-1.2595799,51.7596645,32,Oxford OX1 3RH; UK,United Kingdom
-84.39999999999999,33.75,2,GA 30302-410; USA,United States
-118.0676991,34.2276262,1,CA 91023; USA,United States
-122.4693688,38.2315738,64,CA 95476; USA,United States
10.2027261,56.1460465,3,Aarhus DK-8000; Denmark,Denmark
16.6218441,47.2306851,2,H-9704 Szombathely; Hungary,Hungary
-104.6857493,40.4075503,1,Colorado; 80639 USA,United States
-90.32308069999999,38.6682669,4,MO 63130; USA,United States
-70.6692655,-33.4488897,1,36-D Santiago; Chile,Chile
-3.5985571,37.1773363,5,E-18071 Granada; Spain,Spain
-118.1247032,34.1378866,3,Pasadena; CA 91125,United States
27.2058765,38.4502845,9,35100 İzmir; Turkey,Turkey
116.4073963,39.90419989999999,18,Beijing; PR China,China
35.0063209,29.5320522,1,Aqaba; Jordan,Jordan
-79.49499449999999,43.7728399,1,M3J 1P3; Canada,Canada
146.921099,-31.2532183,7,NSW 1670; Australia,Australia
-0.1334753,51.5242957,1,WC1E6BT London; UK,United Kingdom
-71.09416,42.360091,3,MA 02139-4307; USA,United States
-93.5913939,42.0320531,3,IA 50010; USA,United States
-76.9873477,42.8361156,1,14456; USA,United States
-73.9932872,40.755322,1,NY 10018; USA,United States
-71.1002881,42.3476181,1,MA 02215-1401; USA,United States
16.3191645,48.2358641,2,Vienna A-1180; Austria,Austria
4.7002953,50.87795449999999,1,KU Leuven; Belgium,Belgium
0.1149085,52.2042666,1,Cambridge University; UK,United Kingdom
139.2735382,35.3659632,1,Kanagawa 259-1292; Japan,Japan
-1.2597994,51.7603218,4,Oxford OX1 3PJ; UK,United Kingdom
-1.5614704,52.3792525,1,University of Warwick,United Kingdom
-8.6537539,40.6405055,3,Aveiro; Portugal,Portugal
-72.9283391,41.3212912,4,06511; USA,United States
-97.73488049999999,30.2835151,4,TX 78712-1205; USA,United States
-74.6672226,40.3572976,3,Princeton; NJ 08540 USA,United States
19.0575622,47.4598745,4,1117 Budapest; Hungary,Hungary
-77.03307629999999,38.9295881,2,DC; USA,United States
11.2558136,43.7695604,1,Florence; Italy,Italy
-17.7645747,28.6839885,17,Santa Cruz de La Palma; Spain,Spain
-99.9018131,31.9685988,1,TX 8712; USA,United States
139.6831095,35.6042441,1,Tokio 152-8551; Japan,Japan
139.7690174,35.6803997,1,Tokyo 181─8588; Japan,Japan
-105.8700901,34.5199402,1,NM; USA,United States
-122.3674079,47.6384586,2,WA 98119; USA,United States
-76.2015572,42.5890797,1,NY 13045-0900; USA,United States
-105.5855777,41.3125068,5,WY 82071; USA,United States
7.268990499999999,43.7164834,1,Laboratoire Lagrange; France,France
28.2292712,-25.7478676,1,Pretoria; South Africa,South Africa
23.3877614,42.65626049999999,3,1784; Bulgaria,Bulgaria
27.142826,38.423734,6,Izmir; Turkey,Turkey
-77.623931,43.1318593,2,Rochester NY 14627; USA,United States
6.5514802,51.4479279,6,D-47506 Neukirchen-Vluyn; Germany,Germany
-77.6421577,43.0915814,1,NY 14623-5603; USA,United States
7.261953200000001,43.7101728,4,F-06304 Nice Cedex 4; France,France
2.189617,48.697161,1,Bâtiment 121; F-91405 Orsay France,France
37.6172999,55.755826,1,Moscow 117997; Russia,Russia
13.7763553,45.64757729999999,3,I-34131 Trieste; Italy,Italy
10.4312272,43.7067974,1,I-56124 Pisa; Italy,Italy
17.5833218,48.3709108,2,917 24 Trnava; Slovakia,Slovakia
16.8776437,52.3962363,3,PL-60-286 Poznań; Poland,Poland
-75.1953934,39.9583587,5,PA 19104-2875; USA,United States
106.6296638,10.8230989,1,Ho Chi Minh City; Vietnam,Vietnam
30.3283597,59.75553369999999,3,St. Petersburg 196140; Russia,Russia
-105.7820674,39.5500507,3,CO; USA,United States
-0.0407197,51.5245287,17,E1 4NS; UK,United Kingdom
11.5819805,48.1351253,1,München; Germany,Germany
-106.8414374,34.1054432,1,87801; USA,United States
-86.80411509999999,36.1489935,4,37235; USA,United States
35.2414009,31.7945578,1,Hebrew University of Jerusalem; Israel,Israel
-83.9843467,34.5287785,1,GA 30597; USA,United States
-77.06652,38.9212612,2,Washington DC 20392-5420; USA,United States
-87.61970559999999,41.8839927,2,Chicago IL 60601; USA,United States
79.4635658,29.3803039,1,Nainital 263001; India,India
77.62210910000002,12.9261382,1,Bengaluru 560034; India,India
14.7734546,49.930923,2,25165 Ondřejov; Czech Republic,Czechia
14.4674187,50.1091754,1,180 00 Praha 8; Czech Republic,Czechia
-156.3200234,20.8525374,2,Hawaii 96768; USA,United States
5.5796662,50.6325574,1,19c B-4000 Liege; Belgium,Belgium
13.7626267,45.679968,2,I-34136 Trieste; Italy,Italy
127.5183,37.41379999999999,2,Gyeonggi; Korea,South Korea
9.835970099999999,46.8027453,2,Davos Dorf; Switzerland,Switzerland
23.38832,42.65351,1,72 Tsarigradsko Chaussee Blvd.; Bulgaria,Bulgaria
14.5057515,46.0569465,2,Ljubljana; Slovenia,Slovenia
-155.2382164,19.7031566,2,96720; USA,United States
48.5087209,36.6830045,3,Zanjan; Iran,Iran
12.5683372,55.6760968,2,DK-1350—Copenhagen; Denmark,Denmark
147.325848,-42.9036462,1,Tasmania 7001; Australia,Australia
34.78176759999999,32.0852999,10,Tel-Aviv 69978; Israel,Israel
12.5727765,55.7085326,1,DK-2100—Copenhagen Ø; Denmark,Denmark
14.26812,40.8517983,1,Naples; Italy,Italy
51.53103979999999,25.2854473,9,Doha; Qatar,Qatar
-87.67526699999999,42.0564594,4,Center for Interdisciplinary Exploration and Research in Astrophysics (CIERA); USA,United States
149.0123679,-35.4734679,2,ACT; Australia,Australia
-0.5599501,51.31475930000001,1,Surrey; UK,United Kingdom
0.121817,52.205337,8,Cambridge; UK,United Kingdom
-74.0059728,40.7127753,1,New York,United States
5.5796662,50.6325574,3,Liége; Belgium,Belgium
-73.087749,41.6032207,1,Connecticut,United States
-1.2577263,51.7520209,3,Oxford; UK,United Kingdom
7.280806999999999,43.704712,3,Nice cedex 4; France,France
12.4963655,41.9027835,8,Roma; Italy,Italy
-0.3274198,53.76762360000001,1,Hull; UK,United Kingdom
17.6389267,59.85856380000001,6,Uppsala; Sweden,Sweden
-122.0838511,37.3860517,1,Mountain View; California,United States
-93.63191309999999,42.0307812,1,Ames; Iowa,United States
-2.70309,53.763201,3,Preston; UK,United Kingdom
6.024053899999999,47.237829,3,Besançon Cedex; France,France
-78.47667810000002,38.0293059,1,Charlottesville; Virginia,United States
-2.9915726,53.4083714,3,Liverpool; UK,United Kingdom
-105.2705456,40.0149856,1,Boulder; Colorado,United States
-82.99879419999999,39.9611755,1,Columbus; Ohio,United States
3.876716,43.610769,2,Montpellier; France,France
26.1025384,44.4267674,7,Bucharest; Romania,Romania
2.1397612,41.490047,1,Cerdanyola del Valles; Spain,Spain
12.7152505,41.8181871,1,MontePorzio Catone (RM); Italy,Italy
-106.8414374,34.1054432,2,NM 87801; USA,United States
41.28128969999999,43.5631805,5,Nizhnii Arkhyz; Russia,Russia
127.3845475,36.3504119,4,Daejeon; Korea,South Korea
-95.89812549999999,33.2501869,3,TX 75429; USA,United States
-119.4179324,36.778261,4,CA 94095; USA,United States
5.842828099999999,51.8448837,1,Nijmegen; the Netherlands,Netherlands
20.8537466,39.66502880000001,1,Ioannina; Greece,Greece
18.5984437,53.0137902,3,Toruń; Poland,Poland
-122.4693688,38.2315738,2,95476; USA,United States
-86.9523954,36.1484862,1,37209; USA,United States
-111.0451818,45.6603986,3,59717-3840; USA,United States
12.5683372,55.6760968,2,Copenhagen Ø; Denmark,Denmark
-64.1887761,-31.42008329999999,3,Córdoba; Argentina,Argentina
-85.60236429999999,44.3148443,1,MI; USA,United States
-83.01733860000002,39.9990626,1,Columbus; OH 43210 USA,United States
-70.9279301,42.4272831,1,MA 01908; USA,United States
21.0655731,52.2121784,2,PL-00716 Warsaw; Poland,Poland
19.8229172,50.0419457,1,PL-30244 Cracow; Poland,Poland
14.544733,53.43595879999999,1,PL-70451 Szczecin; Poland,Poland
18.5984437,53.0137902,1,PL-87100 Toruń; Poland,Poland
11.3944254,44.5184235,4,I-40127 Bologna; Italy,Italy
-79.0581498,35.905249,3,NC - 27599-3255; USA,United States
-72.65313139999999,41.558762,1,CT - 06459; USA,United States
-122.3084023,47.6508882,3,Washington 98195; USA.,United States
7.427328599999999,46.9588575,2,CH-3012 Bern; Switzerland.,Switzerland
-87.603826,41.7805099,1,Illinois 60637; USA.,United States
5.5628874,50.63507569999999,5,B-4000 Liège; Belgium.,Belgium
-117.2338066,32.88435520000001,1,California 92093; USA.,United States
-0.663404,44.789819,2,33615 Pessac; France.,France
0.0951918,52.21409269999999,1,Cambridge CB3 0HA; UK.,United Kingdom
-122.6420207,38.235501,1,California 94952; USA.,United States
-122.0781663,37.4062237,1,California 94043; USA.,United States
0.09291429999999999,52.2087836,1,Cambridge CB3 0HE; UK.,United Kingdom
-95.09110620000001,29.5642078,1,Texas 77058; USA.,United States
39.8218953,21.4239823,1,Mecca 24231; Saudia Arabia.,Saudi Arabia
6.1208684,46.3118509,1,CH-1290 Sauverny; Switzerland.,Switzerland
-110.9488008,32.2332841,1,Arizona 85721; USA.,United States
135.7935777,34.9927429,17,Kyoto 607-8471; Japan,Japan
102.742114,25.040516,4,Kunming 650216; China,China
114.5249197,36.59258270000001,1,Handan 056005; China,China
104.7785802,29.3390917,1,Zigong 643000; China,China
-105.24,39.98999999999999,8,80307; USA,United States
72.8776559,19.0759837,7,Mumbai; India,India
-105.8231588,32.7425859,3,88349; USA,United States
-79.3981142,43.6608838,1,M5S 1A7; Canada,Canada
127.3845475,36.3504119,5,Daejeon 34055; Korea,South Korea
-86.7816016,36.1626638,1,Nashville; Tennessee,United States
149.059,-35.338,1,Weston; Australia,Australia
134.5453787,34.8579518,2,Hyogo; Japan,Japan
37.5778246,55.7107897,1,Institute of Astronomy; Russian Academy of Sciences,Russia
37.54274059999999,55.7009893,1,Sternberg Astronomical Institute; Lomonosov Moscow State University,Russia
-85.50972259999999,42.9219281,8,49546; USA,United States
-105.4536718,41.3844415,2,WY 82072; USA,United States
-1.0879769,50.8197675,1,Portsmouth; UK,United Kingdom
2.0910377,41.49733519999999,2,E-08193; Spain,Spain
-43.225657,-22.8949813,1,Observatório Nacional-MCTI; Brazil,Brazil
-122.7982856,47.01809919999999,1,WA 98503; USA,United States
-0.4181907,51.1689044,2,RH5 6NT; UK,United Kingdom
7.7835217,48.6019858,7,F-67000 Strasbourg; France,France
-0.3668239,53.7712765,2,HU6 7RX; UK,United Kingdom
6.5665017,53.2193835,3,9700 AV Groningen; The Netherlands,Netherlands
11.50962,45.8758852,2,Asiago (VI); Italy,Italy
146.921099,-31.2532183,2,NSW 1797; Australia,Australia
116.222804,39.911563,2,100049; P.R. China,China
-73.5436479,45.50232,2,Montréal QC H3C 3J7; CAN,Canada
-73.90232,42.0249933,3,NY 12504; USA,United States
-1.9317168,52.4511304,1,Birmingham B15 2TT; United Kingdom,United Kingdom
5.5670107,50.5723697,1,B-4000 Liège 1 (Sart-Tilman); Belgium,Belgium
18.4687792,-33.9382014,1,Observatory Cape 2735; South Africa,South Africa
116.222804,39.911563,3,100049 Beijing; China,China
-95.712891,37.09024,3,USA,United States
-74.0059728,40.7127753,1,New York; NY,United States
-122.1686966,47.54119679999999,1,12812 SE 69th Place Bellevue; WA 98006,United States
-122.128261,48.0430533,1,7507 52nd Place NE Marysville; WA 98270,United States
19.0617287,47.4745763,2,Pázmány Péter stny. 1/A; Hungary,Hungary
-71.82717389999999,45.3667531,1,Sherbrooke; QC J1M 1Z7,Canada
-87.92,43.03,1,WI 53201; USA,United States
146.921099,-31.2532183,9,NSW 1710; Australia,Australia
-1.1064345,40.3456879,1,Teruel; Spain,Spain
6.5665017,53.2193835,1,Groningen; The Netherlands,Netherlands
-123.3127957,48.4646474,1,V8P 5C2; Canada,Canada
114.1693611,22.3193039,1,Hong Kong; PR China,Hong Kong
-76.6008334,39.3322127,4,21218; USA,United States
-51.2176584,-30.0346471,3,Porto Alegre; Brazil,Brazil
-86.1242881,41.74520709999999,2,46530; USA,United States
-106.7455792,32.2777551,3,88003; USA,United States
-78.510016,38.0340277,3,22904-4325; USA,United States
5.5711984,50.6385169,1,Liège 1 (Sart-Tilman); Belgium,Belgium
-77.8638835,40.8084075,15,16802; USA,United States
20.2822798,49.16449919999999,2,Tatranská Lomnica; Slovak Republic,Slovakia
-77.0226217,38.8951382,2,DC 20004; USA,United States
2.189617,48.697161,14,F-91405 Orsay Cedex; France,France
-122.0510589,37.4094963,1,Moffett Field; CA 94035 USA,United States
-0.2421732,51.7528765,10,Hatfield AL10 9AB; UK,United Kingdom
-111.6630914,35.0832326,1,AZ 86005-8521; USA,United States
-3.952696,40.444211,1,ESAC campus E-28691 Villanueva de la Cañada (Madrid); Spain,Spain
-72.9283391,41.3212912,10,New Haven; CT 06511 USA,United States
139.7690174,35.6803997,1,Tokyo 192-4397; Japan,Japan
-86.5804473,35.5174913,2,TN; USA,United States
-97.73488049999999,30.2835151,4,Austin TX 78712; USA,United States
-123.4215979,48.58457500000001,1,V8M 1R3; Canada,Canada
-105.8231588,32.7425859,1,New Mexico 88349; USA,United States
19.9042597,50.0765798,2,PL-30-084 Krakow; Poland,Poland
19.8229172,50.0419457,2,PL-30-244 Krakow; Poland,Poland
24.8284311,60.186255,1,FI-00076 Aalto; Finland,Finland
24.9510419,60.1726348,1,FI-00014 Helsinki; Finland,Finland
-121.6739371,37.6536947,8,CA 94550; USA,United States
139.6831095,35.6042441,3,Tokyo 152- 8551; Japan,Japan
2.0864011,41.5037176,6,08193 Bellaterra; Spain,Spain
4.4564808,52.16850770000001,1,2333CA Leiden; Netherlands,Netherlands
27.2282788,38.45740980000001,1,University of Ege; Turkey,Turkey
6.1208684,46.3118509,7,Sauverny; Suisse,Switzerland
-93.2342,44.97415609999999,4,MN 55455; USA,United States
15.0586639,37.5267674,1,78-95123 Catania; Italy,Italy
-74.6568772,40.3467174,6,Princeton; NJ 08544 USA,United States
-79.0581498,35.905249,2,27599; USA,United States
44.272133,40.3373909,3,Byurakan; Armenia,Armenia
26.4639166,58.2628346,2,61602 Tõravere; Estonia,Estonia
30.329541,59.76743099999999,3,Pulkovskoye shosse 65; Russia,Russia
37.5323004,55.7042667,1,Moscow 119234; Russia,Russia
37.6238713,55.7381289,1,Moscow 119017; Russia,Russia
102.7186974,25.0266546,2,650011; China,China
77.3910265,28.5355161,2,Noida; India,India
76.71787259999999,30.7046486,1,Mohali; India,India
-2.8074837,56.3401503,20,Fife KY16 9SS; UK,United Kingdom
-96.01895999999999,41.2453849,1,NE 68182; USA,United States
5.117064699999999,51.191087,1,Mol; Belgium,Belgium
-105.2077798,40.04065060000001,6,Colorado 80301; USA,United States
9.9374005,51.5408116,1,Institute for Astrophysics Göttingen; Germany,Germany
13.003822,55.604981,3,Malmö; Sweden,Sweden
-93.64803069999999,42.0288663,4,50011; USA,United States
-78.9853813,36.025609,1,NC 27705; USA,United States
-77.9510209,40.5087323,1,PA 16652; USA,United States
-82.9000751,32.1656221,6,GA; USA,United States
-3.9975566,40.4481075,1,Villanueva de la Cañada (Madrid); Spain,Spain
7.261953200000001,43.7101728,4,F-06304 Nice cedex 4; France,France
-0.3668239,53.7712765,1,Hull HU6 7RX; UK,United Kingdom
-0.4181907,51.1689044,1,Dorking RH5 6NT; UK,United Kingdom
114.1693611,22.3193039,1,Hong Kong; China,Hong Kong
11.6532477,48.2488721,1,D-85748 Garching b. Muenchen; Germany,Germany
-116.20715,43.6054854,1,ID 83725; USA,United States
-116.20715,43.6054854,1,ID 83725-1570; USA,United States
-110.9488008,32.2332841,1,Tucson; AZ 85721-0092,United States
7.060132899999999,50.73363089999999,1,53121 Bonn; Germany,Germany
-122.0525,37.41752,58,California 94035; USA,United States
-1.6777926,48.117266,4,F-35042 Rennes; France,France
-71.128166,42.3814605,5,60 Garden Street Cambridge; MA 02138 USA,United States
-1.9317168,52.4511304,6,Birmingham; B15 2TT UK,United Kingdom
-104.0248334,30.6798048,1,McDonald Observatory; USA,United States
-77.0622028,38.9656971,1,Washington; DC 20015,United States
-99.133208,19.4326077,1,Ciudad de México; México,Mexico
-75.6091696,41.4367622,3,PA 18512; USA,United States
-35.200916,-5.7792569,15,Natal; Brazil,Brazil
106.3013634,29.5519859,1,Chongqing 401331; China,China
116.3094072,37.4911306,2,Dezhou 253023; China,China
-113.9842701,46.861557,3,MT 59812; USA,United States
7.4474468,46.9479739,2,CH-3201 Bern; Switzerland,Switzerland
151.229916,-33.916869,2,Sydney 2052; Australia,Australia
20.4489216,44.786568,1,11 060 Belgrade; Serbia,Serbia
21.0655731,52.2121784,2,PL- 00-716 Warszawa; Poland,Poland
-2.6020972,51.4584503,7,Bristol BS8 1TL; UK,United Kingdom
-122.3336657,47.6061026,1,WA 98154; USA,United States
139.3819957,35.6203179,4,Tokyo 192-0397; Japan,Japan
139.761155,35.698513,1,Tokyo 101-8308; Japan,Japan
-57.9258453,-34.9127846,3,CONICET-UNLP; Argentina,Argentina
5.57132,50.59139,2,Sart-Tilman; Belgium,Belgium
-83.01733860000002,39.9990626,3,43210-1173; USA,United States
-81.6089873,41.5091257,1,44106; USA,United States
-86.51860219999999,39.1714266,1,47405; USA,United States
-83.7146001,42.2660881,2,48104; USA,United States
-104.0072348,30.7713229,2,79734; USA,United States
-76.6354952,39.3566383,1,21210; USA,United States
19.9449799,50.06465009999999,11,Kraków; Poland,Poland
-93.2483058,37.1565149,8,65804; USA,United States
-73.61315359999999,45.5058219,3,Canada; H3T 1J4,Canada
6.1208684,46.3118509,1,1290 Sauverny; Suisse,Switzerland
-3.9975566,40.4481075,6,E-28691 Villanueva de la Cañada; Spain,Spain
5.715193999999999,43.910292,5,F-04870 Saint Michel l'Observatoire; France,France
-101.2190863,19.6718225,1,C.P. 58089 Michoacán; Mexico,Mexico
-155.2382164,19.7031566,2,Hawai‘i 96720-2700; USA,United States
12.0991466,54.0924406,1,Rostock; Germany,Germany
11.5892372,50.927054,2,Jena; Germany,Germany
121.2053963,24.9721514,8,Jhongli 32001; Taiwan,Taiwan
16.3191645,48.2358641,1,Vienna 1180; Austria,Austria
2.213749,46.227638,2,France cedex; France,France
116.316292,39.991698,5,100871; China,China
19.8186982,41.3275459,2,Tirana; Albania,Albania
18.1750161,40.3515155,2,Lecce; Italy,Italy
24.7384095,41.6947013,1,Bulgaria and Institute of Astronomy and National Astronomical Observatory; Bulgarian Academy of Sciences,Bulgaria
116.385257,40.004439,3,Chinese Academy of Sciences; Beijing 100012,China
7.427328599999999,46.9588575,2,CH-3012; Switzerland,Switzerland
17.6389267,59.85856380000001,1,SE-751-20 Upsalla; Sweden,Sweden
139.5361196,35.6753711,2,181-8588 Tokyo; Japan,Japan
139.6831095,35.6042441,1,152-8551 Tokyo; Japan,Japan
16.6030556,47.2577607,28,Szent Imre herceg út 112; Hungary,Hungary
-38.985274,-12.150325,2,44036-900 Bahia; Brazil,Brazil
-38.9462588,-12.2272615,1,44051-224 Bahia; Brazil,Brazil
0.1149085,52.2042666,1,Cambridge CB3 0H4; UK,United Kingdom
5.5711984,50.6385169,2,B-4000 Liège 1; Belgium,Belgium
-122.2683743,47.6614244,2,WA 98105; USA,United States
-80.68817179999999,28.0181548,1,FL 32907; USA,United States
