lon,lat,count,name
4.680772999999999,50.8612986,16,B-3001 Leuven; Belgium
2.23847,48.812995,10,F-92195 Meudon; France
5.8372264,51.8125626,9,NL-6500 GL Nijmegen; the Netherlands
-118.8741429,34.2024698,1,CA 91360; USA
4.4970097,52.1601144,5,NL-2300 RA Leiden; the Netherlands
-74.6568772,40.3467174,47,NJ 08544; USA
-16.3007626,28.4868465,12,E-38205 Tenerife; Spain
7.681092100000001,45.0576139,23,I-10125 Torino; Italy
10.2027261,56.1460465,131,DK-8000 Aarhus C; Denmark
12.0206589,57.4134952,20,SE-439 92 Onsala; Sweden
2.134078,48.701844,4,F-91191 Gif-sur-Yvette; France
11.7158452,50.9910636,22,D-07778 Tautenberg; Germany
139.7600967,35.7088306,20,Tokyo 113-0033; Japan
-110.9447027,32.2546522,16,AZ 85719; USA
139.6838097,35.6044614,25,Tokyo 152-8551; Japan
8.7202574,49.3928952,46,D-69117 Heidelberg; Germany
-1.9308602,52.44897169999999,6,Birmingham B15 2TT; UK
-97.73488049999999,30.2835151,91,TX 78712; USA
13.5470509,52.4370179,66,D-12489 Berlin; Germany
6.9188847,50.9302584,45,D-50931 Köln; Germany
139.5364976,35.67533,44,Tokyo 181-8588; Japan
-70.6692655,-33.4488897,1,19001 Santiago de Chile; Chile
18.9821804,47.4971726,20,H-1121 Budapest; Hungary
-71.82717389999999,45.3667531,6,QC J1M 1Z7; Canada
-110.1879106,31.3957613,7,AZ 85615; USA
115.7752703,-31.9685608,1,Western Australia 6010; Australia
11.7363208,55.6079865,5,DK-4340 Tølløse; Denmark
-122.1492224,48.0563616,3,WA 98270; USA
-118.1247032,34.1378866,174,CA 91125; USA
-118.1247032,34.1378866,1,CA91125; USA
-122.0525,37.41752,72,CA 94035; USA
-17.766582,28.6392029,11,E-38711 Breña Baja; Spain
-70.6692655,-33.4488897,78,Santiago; Chile
-70.6692655,-33.4488897,3,Santiago 7820436; Chile
-71.61268849999999,-33.047238,7,Valparaíso; Chile
-122.2594606,37.87015100000001,33,CA 94720; USA
-122.0581762,36.9923139,6,CA 95064; USA
8.6724335,49.3987524,23,Heidelberg; Germany
133.775136,-25.274398,7,Center of Excellence for Astrophysics in Three Dimensions (ASTRO-3D); Australia
148.7831534,-35.4477412,38,ACT 2611; Australia
151.1883894,-33.8877655,34,NSW 2006; Australia
17.6389267,59.85856380000001,2,SE-751 20 Uppsala; Sweden
-73.98153370000001,40.7388319,1,NY 10010; USA
145.1348243,-37.9104511,1,Clayton VIC 3800; Australia
11.8767611,45.4064349,8,Padova; Italy
151.229916,-33.916869,11,NSW 2052; Australia
151.134494,-33.7934648,5,NSW 2113; Australia
14.4896074,46.0363798,9,1000 Ljubljana; Slovenia
8.7202574,49.3928952,2,69117 Heidelberg; Germany
-78.6568942,37.4315734,2,VA 22904-4325; USA
7.686864,45.0703393,14,Torino; Italy
172.6362254,-43.5320544,2,Christchurch; New Zealand
151.9533185,-27.5564884,6,Queensland 4350; Australia
115.8107681,-31.9820615,2,WA 6009; Australia
11.50962,45.8758852,1,36012 Asiago; Italy
-76.6008334,39.3322127,18,MD 21218; USA
-118.1386005,34.1427587,18,CA 91101; USA
146.921099,-31.2532183,1,NSW 2751; Australia
-83.01733860000002,39.9990626,41,OH 43210; USA
72.5641077,23.0314594,10,Ahmedabad 380009; India
-77.8638835,40.8084075,18,PA 16802; USA
-82.9000751,32.1656221,5,GA 30302-5060; USA
-76.8632581,38.9916589,29,MD 20771; USA
-82.5510469,35.6304783,1,NC 28804; USA
-118.1268976,34.1456654,2,CA 91106; USA
-86.2412543,41.7043332,12,IN 46556; USA
-83.624201,41.6735366,1,OH 43606; USA
-84.3883717,33.755711,6,GA 30303; USA
-118.8829816,34.2942772,2,CA 93021; USA
-157.8152491,21.3175493,43,HI 96822; USA
4.4970097,52.1601144,1,2300RA Leiden; The Netherlands
-1.5616976,52.3800625,62,CV4 7AL; UK
-79.01929969999999,35.7595731,20,NC 27599-3255; USA
9.963474999999999,51.56655319999999,1,D-37077Göttingen; Germany
-97.9647269,29.5688411,1,Seguin; TX 78155
0.0953282,52.2145316,1,CB3 0HA; United Kingdom
-16.6291304,28.2915637,117,Tenerife; Spain
-3.7037902,40.4167754,23,Madrid; Spain
5.724524,45.188529,21,Grenoble; France
-118.1247032,34.1378866,20,91125; USA
5.36978,43.296482,51,Marseille; France
-0.630386,44.80583,6,Pessac; France
-70.6201973,-33.4323444,2,Santiago 19; Chile
7.4474468,46.9479739,5,Bern; Switzerland
5.5796662,50.6325574,4,Liège; Belgium
8.541694,47.3768866,3,Zurich; Switzerland
2.3522219,48.856614,5,Paris; France
0.0927876,52.2090647,4,CB3 0HE; UK
-1.9308602,52.44897169999999,16,B15 2TT; UK
2.134078,48.701844,1,Gif-sur-Yvette; France
-71.1032591,42.36475590000001,6,02139; USA
-117.2338066,32.88435520000001,1,92093; USA
-87.603826,41.7805099,1,60637; USA
-95.09110620000001,29.5642078,1,77058; USA
18.0685808,59.32932349999999,1,Stockholm; Sweden
-8.4863157,51.8968917,4,Cork; Ireland
-122.3084023,47.6508882,16,WA 98195; USA
116.4541469,40.0192499,1,100012; People’s Republic of China
9.963474999999999,51.56655319999999,12,D-37077 Göttingen; Germany
-3.5838002,37.15490339999999,2,E-18008 Granada; Spain
11.7158452,50.9910636,12,D-07778 Tautenburg; Germany
2.1734035,41.3850639,3,Barcelona; Spain
13.1028717,52.3875629,14,D-14482 Potsdam; Germany
10.2260726,53.489276,1,D-21029 Hamburg; Germany
-3.7384311,40.4473608,3,E-28040 Madrid; Spain
37.6172999,55.755826,11,Moscow; Russia
-2.8074837,56.3401503,9,KY16 9SS; UK
-79.49499449999999,43.7728399,2,ON M3J 1P3; Canada
-1.2595051,51.75972160000001,17,OX1 3RH; UK
-105.2077798,40.04065060000001,8,CO 80301; USA
9.0615313,48.53924809999999,1,D-72076 Tübingen; Germany
-89.42692869999999,43.1054334,7,WI 53706; USA
139.53767,35.675447,2,National Astronomical Observatory of Japan; Japan
5.117064699999999,51.191087,1,Mol 2400; Belgium
-2.2336761,53.4667506,11,Manchester M13 9PL; UK
-70.6692655,-33.4488897,6,7591245 Santiago; Chile
-5.8493887,43.3619145,6,Oviedo; Spain
-3.6861518,40.4411076,1,Consejo Superior de Investigaciones Científicas; Spain
-74.6568772,40.3467174,6,08544; USA
11.9466951,57.40058599999999,2,439 92 Onsala; Sweden
139.6838097,35.6044614,1,152-8551; Japan
138.252924,36.204824,8,181-8588; Japan
13.404954,52.52000659999999,26,Berlin; Germany
10.2027261,56.1460465,14,Aarhus C; Denmark
-97.73488049999999,30.2835151,10,78712; USA
4.4970097,52.1601144,10,Leiden; The Netherlands
133.5823171,34.564242,1,719-0232; Japan
6.9602786,50.937531,12,Köln; Germany
11.7158452,50.9910636,5,Tautenberg; Germany
-83.01733860000002,39.9990626,1,43210; USA
5.7165413,45.18942980000001,6,38000 Grenoble; France
6.114234,46.315994,13,1290 Sauverny; Switzerland
-58.3815591,-34.6036844,5,Buenos Aires; Argentina
127.5183,37.41379999999999,2,Kyeonggi 17104; Republic of Korea
127.3845475,36.3504119,8,Daejeon 34113; Republic of Korea
127.4890319,36.6424341,1,Cheongju 28644; Republic of Korea
-79.3981142,43.6608838,1,ON M5S 3H8; Canada
-119.4179324,36.778261,4,CA 9112; USA
-122.6420207,38.235501,10,CA 94952; USA
-118.1528623,34.1561783,19,CA 91109; USA
-71.3824374,42.4072107,18,MA; USA
-106.346771,56.130366,1,H3T J4; Canada
-77.623931,43.1318593,3,NY 14627; USA
7.5723451,47.5233885,2,Bottmingen; Switzerland
10.845346,51.0109892,1,Thuringia; Germany
13.7372621,51.0504088,1,Dresden; Germany
-73.61315359999999,45.5058219,2,H3T 1J4; Canada
-75.75023139999999,39.6673566,3,19716; USA
13.0644729,52.3905689,18,Potsdam; Germany
-117.2338066,32.88435520000001,5,CA 92093; USA
12.7152505,41.8181871,3,Monteporzio Catone (RM); Italy
4.895167900000001,52.3702157,1,NL-1090-GE Amsterdam; The Netherlands
2.1131154,41.39438190000001,3,E-08034 Barcelona; Spain
14.1989038,40.864297,3,I-80131 Napoli; Italy
172.5780878,-43.5261634,1,Christchurch 8041; New Zealand
9.4065471,45.6983647,2,I-23807 Merate (LC); Italy
-1.3956847,50.934189,2,Southampton SO17 1BJ; UK
2.1757278,41.3919671,1,E-08010 Barcelona; Spain
151.229916,-33.916869,1,Sydney NSW 2052; Australia
11.6532477,48.2488721,13,D-85748 Garching; Germany
34.8056661,32.1166516,7,Tel-Aviv 6997801; Israel
-73.5436479,45.50232,8,QC H3C 3J7; Canada
-0.1334268,51.5247725,6,London WC1E 6BT; UK
-1.5616976,52.3800625,93,Coventry CV4 7AL; UK
-97.4421919,35.1879507,7,OK 73019; USA
2.3432774,48.8484556,1,Sorbonne Paris Cité; France
4.3559193,50.7904904,2,B-1180 Brussels; Belgium
-83.6694169,42.3053253,1,MI 48109-1107; USA
-1.1238104,52.62191929999999,12,Leicester LE1 7RH; UK
-1.486084,53.3809845,9,Sheffield S3 7RH; UK
5.8372264,51.8125626,3,NL-6500 GL Nijmegen; The Netherlands
4.9571436,52.3563015,1,NL-1098 XH Amsterdam; The Netherlands
6.394826699999999,52.8171068,1,NL-7991 PD Dwingeloo; The Netherlands
0.0953282,52.2145316,23,Cambridge CB3 0HA; UK
-2.274598300000001,53.0039516,12,Staffordshire ST5 5BG; UK
-86.51860219999999,39.1714266,1,IN 47405-7105; USA
-5.8545077,43.3636198,4,E-33004 Oviedo; Spain
6.1657813,46.2876938,16,CH-1290 Versoix; Switzerland
-3.68134,40.4351996,1,E-28006 Madrid; Spain
2.3518339,48.8434912,1,75005 Paris; France
-1.519693,52.406822,13,Coventry; UK
-8.629105299999999,41.1579438,45,Porto; Portugal
-70.6692655,-33.4488897,8,Santiago de Chile; Chile
1.444209,43.604652,5,Toulouse; France
2.331433,48.791855,1,Cachan; France
6.1657813,46.2876938,40,Versoix; Switzerland
7.769664400000001,45.0445643,3,Pino Torinese; Italy
15.0830304,37.5078772,2,Catania; Italy
5.715193999999999,43.910292,2,Saint Michel l'Observatoire; France
-72.9637728,41.3266814,5,CT 06515; USA
15.439504,47.070714,10,Graz; Austria
92.8932476,56.01528339999999,1,Krasnoyarsk; Russian Federation
-77.0622028,38.9656971,5,DC 20015; USA
-117.072053,32.7759882,5,CA 92182; USA
-119.8696691,34.4301656,16,CA 93117; USA
-1.1829186,51.796528,8,Oxford OX3 9UU; UK
-86.80411509999999,36.1489935,20,TN 37235; USA
11.8704306,45.4003087,23,I-35122 Padova; Italy
11.8704306,45.4003087,18,Padova I-35122; Italy
-118.6848112,34.1307949,1,CA 91302; USA
78.5431066,17.4176446,4,Hyderabad 500007; India
127.3845475,36.3504119,1,Daejeon 34055; Republic of Korea
-119.4179324,36.778261,110,CA; USA
77.2090212,28.6139391,1,New Delhi; India
77.19158399999999,28.6785828,1,Delhi 110007; India
79.4647633,29.3764941,2,Nainital 263002; India
9.2273552,45.5000627,2,I-20127 Bologna; Italy
-3.6927531,40.52506899999999,2,E-28049 Madrid; Spain
-46.63330939999999,-23.5505199,1,SP; Brazil
7.769664400000001,45.0445643,1,10025-Turin; Italy
13.3283954,52.5070391,13,D-10623 Berlin; Germany
-17.7651015,28.6887569,3,E-38700 Santa Cruz de La Palma; Spain
30.5234,50.4501,2,Kyiv; Ukraine
18.4721169,-33.9375585,5,Observatory 7935; South Africa
-155.2382164,19.7031566,8,HI 96720-2700; USA
-76.64127119999999,39.0457549,10,MD; USA
-95.712891,37.09024,10,IN; USA
146.921099,-31.2532183,1,New South Wales; Australia
-71.2519374,-29.9026691,5,La Serena; Chile
-76.944141,38.9908487,2,MD 20742; USA
-71.2079809,46.8138783,1,Quebec; Canada
-74.651754,40.3815302,2,NJ 08540; USA
-87.603826,41.7805099,6,IL 60637; USA
-75.3353875,40.0468052,4,PA 19085; USA
12.5772648,55.68630599999999,9,DK-1350 Copenhagen; Denmark
0.0927876,52.2090647,14,Cambridge CB3 0HE; UK
7.769664400000001,45.0445643,9,I-10025 Pino Torinese; Italy
-17.7724671,28.6412969,12,E-38712 Breña Baja; Spain
-122.2594606,37.87015100000001,3,CA 94720-3411; USA
-8.6393579,41.1502012,5,PT4150-762 Porto; Portugal
13.393389,38.0824516,3,I-90124 Palermo; Italy
9.1314338,39.2819578,1,Via della Scienza 5—I-09047 Selargius (CA); Italy
-3.1878622,55.92320110000001,2,EH93HJ; UK
-5.934759199999999,54.5838629,13,Belfast BT7 1NN; UK
-74.4056612,40.0583238,3,NJ; USA
-111.0937311,34.0489281,6,AZ; USA
-99.9018131,31.9685988,3,TX; USA
-16.3375493,28.4894267,48,E-38206 La Laguna; Spain
11.3426162,44.494887,6,Bologna; Italy
4.4564808,52.16850770000001,4,2333CA Leiden; The Netherlands
115.8604572,-31.9505269,4,Perth; Australia
19.040235,47.497912,3,1451 Budapest; Hungary
139.6838764,35.6044669,1,152-8550; Japan
-72.65313139999999,41.558762,11,CT 06459; USA
-111.9403254,33.4366655,2,AZ 85281; USA
2.0864011,41.5037176,12,E-08193 Bellaterra; Spain
-97.73488049999999,30.2835151,2, TX 78712;  USA
-155.2382164,19.7031566,9,HI 96720; USA
-97.286868,31.5348439,1,TX 76712; USA
12.5772648,55.68630599999999,1,DK-1350 Copenhagen K.; Denmark
-157.8152491,21.3175493,1,Hi 96822; USA
-71.13891009999999,42.3803274,34,Cambridge; MA 02138 USA
-70.5058683,-33.3749808,1,7591538 Santiago; Chile
-119.7289889,34.4402467,2,CA 93105; USA
-77.3209555,38.8454321,2,22030 Virginia; USA
-71.1002881,42.3476181,8,MA 02215; USA
-97.54638849999999,31.6559422,3,76689 TX; USA
-122.2143323,37.8015517,1,CA 94602; USA
-111.6502622,40.2524308,1,UT 84602; USA
-110.1640846,31.5091589,4,AZ 85650; USA
-97.4408397,31.1990792,1,TX 76504; USA
-75.75023139999999,39.6673566,12,DE 19716; USA
18.4721169,-33.9375585,1,Cape Town 7935; South Africa
-93.28257029999999,37.1960443,16,MO 65897; USA
19.8968991,50.0790939,4,PL-30-084 Kraków; Poland
18.9930926,69.6857553,1,Tromsø 9019; Norway
-6.6501787,54.352239,11,Armagh BT61 9DG; UK
-71.1032591,42.36475590000001,1,MA 02139;USA
133.5823171,34.564242,2,719-0232 Okayama; Japan
4.4564808,52.16850770000001,1,NL-2333CA Leiden; The Netherlands
102.7186974,25.0266547,1,Kunming 650011; China
-6.262036,53.3389622,5,Dublin 2; Ireland
-2.274598300000001,53.0039516,32,ST5 5BG; UK
-118.1268976,34.1456654,1,Pasadena; CA 91106 USA
-76.71200639999999,39.2546062,3,MD 21250; USA
122.240051,-17.954216,1,c/o Australian Broadcasting Corporation; Australia
-2.7967214,56.3397753,4,St Andrews KY16922; UK
-117.2338066,32.88435520000001,1,CA 92093-0424; USA
-71.542969,-35.675147,1,0000-0001-7124-4094; Chile
144.7851531,-37.4713077,3,Victoria; Australia
146.921099,-31.2532183,3,NSW 2109; Australia
121.5654177,25.0329694,2,Taipei 10617; Taiwan
-95.4306141,29.7183467,2,TX 77005; USA
-111.7614661,35.3605853,5,AZ 86001; USA
34.3233527,61.819856,1,185031 Petrozavodsk; Russia
148.7831534,-35.4477412,2,2611; Australia
-17.7651015,28.6887569,3,E-38700; Spain
11.6219985,50.9959499,1,D-07778; Germany
19.0575622,47.4598745,3,H-1117 Budapest; Hungary
19.2869196,47.4936236,1,Szent Imre herceg útja 112; Hungary
-98.4831622,29.4618444,1,TX 78212-7200; USA
15.4828065,47.0505635,2,A-8042 Graz; Austria
-73.96243270000001,40.8138912,3,New York 10027; USA
-122.272747,37.8715926,1,Berkeley 94270; USA
-72.65313139999999,41.558762,3,Middletown 06459; USA
-111.6862411,33.3410342,2,Private Address; USA
-79.01929969999999,35.7595731,3,NC; USA
-64.896335,18.335765,1,United States Virgin Islands; USA
-77.03165779999999,38.9949446,23,HI; USA
-122.0581762,36.9923139,1,95064; USA
-84.3883717,33.755711,1,30303; USA
127.3845475,36.3504119,6,Daejon 34055; Korea
21.0122287,52.2296756,38,00-478 Warszawa; Poland
174.7633315,-36.8484597,4,Auckland 0745; New Zealand
11.6532477,48.2488721,1,D-85748 Garching bei München; Germany
12.5772648,55.68630599999999,3,DK-1350—Copenhagen K; Denmark
-79.1880063,43.781841,2,M1C 1A4; Canada
127.5183,37.41379999999999,2,Kyeonggi 17104; Korea
14.7965608,40.7731935,3,I-84084 Fisciano (SA); Italy
136.9624604,35.15461070000001,18,Nagoya 464-8601; Japan
135.4533378,34.8032044,26,Osaka 560-0043; Japan
138.1947709,36.6485829,4,Nagano 381-8550; Japan
139.8095201,35.734581,4,Tokyo 116-8523; Japan
139.3953777,35.5583411,2,Kanagawa 252-5210; Japan
170.4771212,-44.0046736,3,Lake Tekapo 8770; New Zealand
135.7584211,35.0702856,3,603-8555 Kyoto; Japan
116.3288577,40.0006896,2,Beijing 100084; China
8.6844799,49.4135138,10,D-69120 Heidelberg; Germany
2.3255684,48.8314408,13,F-75014 Paris; France
34.78176759999999,32.0852999,1,Tel Aviv 69978; Israel
-0.7097473999999999,52.0249136,5,MK7 6AA; UK
-3.0184011,53.3990743,2,Liverpool CH41 1LD; UK
14.2681244,40.8517746,3,Napoli; Italy
9.9819779,53.5688101,1,20146 Hamburg; Germany
18.0685808,59.32932349999999,4,SE-106 91 Stockholm; Sweden
-70.39750219999999,-23.6509279,2,Antofagasta; Chile
51.3889736,35.6891975,1,PO Box 11155-9161 Tehran; Iran
51.66798259999999,32.6546275,1,841568311 Isfahan; Iran
-0.1277583,51.5073509,1,London; UK
-73.087749,41.6032207,4,CT; USA
-1.470085,53.38112899999999,1,Sheffield; UK
4.680772999999999,50.8612986,4,3001 Leuven; Belgium
-118.8741429,34.2024698,1,91360; USA
9.963474999999999,51.56655319999999,1,37077 Göttingen; Germany
-86.80696979999999,36.1718363,11,TN 37208; USA
-75.3761952,40.5967701,5,PA 18015; USA
18.4240553,-33.9248685,6,Cape Town; South Africa
-8.638482999999999,41.150667,2,Universidade do Porto; CAUP
-156.3081217,20.7278194,1,96790; USA
0.121817,52.205337,1,HA Cambridge; UK
-73.5491361,52.9399159,4,QC; Canada
-106.346771,56.130366,1,ON; Canada
11.7158452,50.9910636,4,Tautenburg; Germany
-77.0622028,38.9656971,5,20015-1305; USA
-118.1386005,34.1427587,4,91101; USA
-71.13891009999999,42.3803274,5,02138; USA
12.0206589,57.4134952,3,Onsala; Sweden
-74.651754,40.3815302,1,08540; USA
151.9533185,-27.5564884,1,4350; Australia
-122.4894588,48.7562157,7,WA 98225; USA
11.925783,57.396182,2,Onsala Space Observatory SE-439 92 Onsala; Sweden
-86.9523954,36.1484862,2,TN 37209; USA
151.9506696,-27.5598212,1,Computational Science and Engineering Research Centre; Toowoomba QLD Australia
12.5772648,55.68630599999999,5,DK-1350 Copenhagen K; Denmark
-83.6694169,42.3053253,2,MI 48109; USA
9.189982,45.4642035,2,Milano; Italy
-3.1878622,55.92320110000001,2,Edinburgh EH93HJ; UK
-157.8152491,21.3175493,3,Hawaii 96822; USA
-122.0581762,36.9923139,1,California 95064; USA
10.2027261,56.1460465,2,DK-8000;  Denmark
-97.73488049999999,30.2835151,2, TX 78712; USA
-79.0581498,35.905249,17,NC 27599; USA
-97.9157099,29.5068941,1,TX 78155; USA
-122.4863492,37.7181398,2,CA 94132; USA
-122.0723816,37.428434,14,CA 94043; USA
-6.652792,54.3502798,1,Armagh; Ireland
78.3289668,17.4577604,1,Telangana 500046; India
-95.9345034,41.2565369,1,Omaha; USA
-120.7401385,47.7510741,2,WA; USA
-74.0059728,40.7127753,4,NY; USA
-156.3200234,20.8525374,1,HI 96768; USA
-99.9018131,31.9685988,1,TX 78812; USA
-85.7624992,38.21692609999999,1,KY 40292; USA
-16.3160942,28.481798,1,Universidad de La Laguna; Spain
18.4721169,-33.9375585,1,7935; South Africa
170.4771212,-44.0046736,1,Lake Tekapo 7945; New Zealand
135.7584211,35.0702856,4,Kyoto 603-8555; Japan
-1.2595051,51.75972160000001,16,Oxford OX1 3RH; UK
-84.39999999999999,33.75,2,GA 30302-410; USA
-118.0676991,34.2276262,1,CA 91023; USA
-122.4693688,38.2315738,9,CA 95476; USA
2.134078,48.701844,4,F-91191 Gif-sur-Yvette Cedex; France
54.3773438,24.453884,3,Abu Dhabi; UAE
8.7202574,49.3928952,1,D-69117; Germany
-71.61268849999999,-33.047238,2,Valparaíso 2360102; Chile
-70.6692655,-33.4488897,1,36-D Santiago; Chile
116.4073963,39.90419989999999,1,Beijing; PR China
-122.3084023,47.6508882,1,98195; USA
35.0063209,29.5320522,1,Aqaba; Jordan
-86.2412543,41.7043332,1,46556; USA
34.78176759999999,32.0852999,1,Tel Aviv; Israel
-5.934759199999999,54.5838629,3,BT7 1NN; UK
-79.49499449999999,43.7728399,1,M3J 1P3; Canada
9.915803499999999,51.54128040000001,2,Göttingen; Germany
-76.9873477,42.8361156,1,14456; USA
-71.1240559,42.3421605,1,MA 02446; USA
-73.9932872,40.755322,1,NY 10018; USA
-105.8231588,32.7425859,6,NM 88349; USA
16.3191645,48.2358641,1,Vienna A-1180; Austria
-1.5616976,52.3800625,9,Coventry CV4 7AL; UK
-93.64803069999999,42.0288663,6,IA 50011; USA
27.2058765,38.4502845,2,35100 İzmir; Turkey
-72.2889045,43.70195830000001,1,NH 03755; USA
98.93557369999999,18.7952345,3,Chiang Mai 50200; Thailand
-104.0072348,30.7713229,3,TX 79734; USA
-1.5616976,52.3800625,1,CV4 7AL; UK
-1.5614704,52.3792525,1,University of Warwick
19.0575622,47.4598745,2,1117 Budapest; Hungary
16.6218441,47.2306851,1,Szombathely; Hungary
-111.653403,35.19054029999999,2,AZ 86011; USA
11.6532477,48.2488721,3,Garching; Germany
-77.0368707,38.9071923,2,DC; USA
-118.4440562,34.070264,5,CA 90095; USA
13.3612671,38.1156879,4,Palermo; Italy
11.2558136,43.7695604,1,Florence; Italy
-17.7645747,28.6839885,8,Santa Cruz de La Palma; Spain
-99.9018131,31.9685988,1,TX 8712; USA
139.6838097,35.6044614,1,Tokio 152-8551; Japan
139.6917064,35.6894875,1,Tokyo 181─8588; Japan
-111.9311939,33.4183159,1,AZ 85287-1404; USA
-91.17999999999999,30.41,6,LA 70803; USA
-77.6421577,43.0915814,1,NY 14623-5603; USA
-73.96243270000001,40.8138912,6,NY 10027; USA
-83.9843467,34.5287785,1,GA 30597; USA
-82.90712300000001,40.4172871,1,OH; USA
5.5628874,50.63507569999999,9,B-4000 Liège; Belgium
-16.2518467,28.4636296,2,Santa Cruz de Tenerife; Spain
79.4635658,29.3803039,1,Nainital 263001; India
-110.9488008,32.2332841,6,AZ 85721; USA
77.62210910000002,12.9261382,1,Bengaluru 560034; India
14.7734546,49.930923,2,25165 Ondřejov; Czech Republic
14.4674187,50.1091754,1,180 00 Praha 8; Czech Republic
-156.3200234,20.8525374,2,Hawaii 96768; USA
26.9088394,43.2496347,2,9700 Shumen; Bulgaria
23.3881151,42.6492038,1,72 Tsarigradsko Chaussee Blvd.; Bulgaria
6.141637999999999,46.2986462,8,Sauverny; Switzerland
-157.8152491,21.3175493,4,96822; USA
13.1910073,55.7046601,6,Lund; Sweden
-155.2382164,19.7031566,1,96720; USA
48.5087209,36.6830045,2,Zanjan; Iran
12.5772648,55.68630599999999,2,DK-1350—Copenhagen; Denmark
145.9706647,-41.4545196,1,Tasmania 7001; Australia
34.78176759999999,32.0852999,6,Tel-Aviv 69978; Israel
12.5727765,55.7085326,1,DK-2100—Copenhagen Ø; Denmark
14.2681244,40.8517746,1,Naples; Italy
51.53103979999999,25.2854473,2,Doha; Qatar
-95.89812549999999,33.2501869,1,TX 75429; USA
-119.4179324,36.778261,1,CA 94095; USA
-85.60236429999999,44.3148443,1,MI; USA
-72.9283391,41.3212912,11,CT 06511; USA
18.9644858,47.50001710000001,4,Konkoly Thege M. út 15-17; Hungary
-118.1247032,34.1378866,1,Pasadena; CA 91125
-79.01929969999999,35.7595731,3,NC - 27599-3255; USA
-72.65313139999999,41.558762,1,CT - 06459; USA
15.5858914,49.6652737,1,CZ-611 37 Brno; Czech Republic
13.339803,52.45552929999999,2,D-12169 Berlin; Germany
17.0838432,51.1075344,1,PL-51-622 Wrocław; Poland
7.427328599999999,46.9588575,2,CH-3012 Bern; Switzerland.
-87.603826,41.7805099,1,Illinois 60637; USA.
5.5628874,50.63507569999999,5,B-4000 Liège; Belgium.
-117.2338066,32.88435520000001,1,California 92093; USA.
-82.5889012,28.0003221,2,33615 Pessac; France.
0.0953282,52.2145316,1,Cambridge CB3 0HA; UK.
-122.6420207,38.235501,1,California 94952; USA.
-122.0723816,37.428434,1,California 94043; USA.
0.0927876,52.2090647,1,Cambridge CB3 0HE; UK.
-95.09110620000001,29.5642078,1,Texas 77058; USA.
39.8218953,21.4239823,1,Mecca 24231; Saudia Arabia.
6.159288999999999,46.28916299999999,1,CH-1290 Sauverny; Switzerland.
127.3845475,36.3504119,1,Daejeon 34055; Korea
-122.7982856,47.01809919999999,1,WA 98503; USA
-0.4207069,51.1719559,2,RH5 6NT; UK
7.7835217,48.6019858,5,F-67000 Strasbourg; France
6.5665017,53.2193835,3,9700 AV Groningen; The Netherlands
11.50962,45.8758852,2,Asiago (VI); Italy
146.921099,-31.2532183,2,NSW 1797; Australia
-51.2176986,-30.0346316,2,RS; Brazil
10.8808637,49.8729118,1,D-96049 Bamberg; Germany
-95.712891,37.09024,1,USA
19.5033041,47.162494,1,Kt. 766; Hungary
27.142826,38.423734,1,İzmir; Turkey
-74.0059728,40.7127753,1,New York; NY
-122.2594606,37.87015100000001,1,94720-3411; USA
-119.4179324,36.778261,4,California; USA
-122.1686966,47.54119679999999,1,12812 SE 69th Place Bellevue; WA 98006
-122.128261,48.0430533,1,7507 52nd Place NE Marysville; WA 98270
19.0617287,47.4745763,1,Pázmány Péter stny. 1/A; Hungary
-71.82717389999999,45.3667531,1,Sherbrooke; QC J1M 1Z7
-87.92,43.03,1,WI 53201; USA
146.921099,-31.2532183,2,NSW 1710; Australia
-118.125269,34.1376576,2,California Institute of Technology
2.23847,48.812995,2,Meudon; France
7.752111299999999,48.5734053,1,Strasbourg; France
0.0953282,52.2145316,2,CB3 0HA; UK
6.5665017,53.2193835,1,Groningen; The Netherlands
-123.3127957,48.4646474,1,V8P 5C2; Canada
151.1126498,-33.77382370000001,1,2109; Australia
133.775136,-25.274398,1,1670; Australia
-76.6008334,39.3322127,1,21218; USA
-43.1728965,-22.9068467,4,Rio de Janeiro; Brazil
2.23847,48.812995,1,Meudon Cedex; France
-51.2176584,-30.0346471,1,Porto Alegre; Brazil
2.189617,48.697161,1,Orsay Cedex; France
-86.1242881,41.74520709999999,1,46530; USA
-106.7455792,32.2777551,1,88003; USA
-78.510016,38.0340277,2,22904-4325; USA
-105.2077798,40.04065060000001,1,80301; USA
5.5601151,50.6037826,1,Liège 1 (Sart-Tilman); Belgium
-77.8638835,40.8084075,1,16802; USA
-3.1878622,55.92320110000001,2,EH9 3HJ; UK
-72.9310217,41.3064267,1,CT 06520; USA
-73.5436479,45.50232,1,H3C 3J7; Canada
-77.0226217,38.8951382,2,DC 20004; USA
2.1828032,48.7028006,1,F-91405 Orsay Cedex; France
7.261953200000001,43.7101728,2,Nice; France
-122.0401969,37.4205669,1,Moffett Field; CA 94035 USA
-111.6630914,35.0832326,1,AZ 86005-8521; USA
-3.952696,40.444211,1,ESAC campus E-28691 Villanueva de la Cañada (Madrid); Spain
-1.486084,53.3809845,1,S3 7RH; UK
5.7165413,45.18942980000001,10,F-38000 Grenoble; France
-76.9873477,42.8361156,1,NY 14456; USA
2.0864011,41.5037176,1,08193 Bellaterra; Spain
-79.3974105,43.660818,3,ON M5S 3H4; Canada
-94.6858998,46.729553,2,MN 55455; USA
15.0586639,37.5267674,1,78-95123 Catania; Italy
10.4016888,43.7228386,2,Pisa; Italy
-74.6568772,40.3467174,6,Princeton; NJ 08544 USA
-79.0581498,35.905249,2,27599; USA
-96.01895999999999,41.2453849,1,NE 68182; USA
5.117064699999999,51.191087,1,Mol; Belgium
-82.9000751,32.1656221,1,GA; USA
7.261953200000001,43.7101728,3,F-06304 Nice cedex 4; France
-1.259116,51.7595933,1,Oxford OX1 3NP; UK
-0.3671649,53.76964,1,Hull HU6 7RX; UK
-0.4207069,51.1719559,1,Dorking RH5 6NT; UK
114.109497,22.396428,1,Hong Kong; China
146.921099,-31.2532183,4,NSW 1670; Australia
11.6532477,48.2488721,1,D-85748 Garching b. Muenchen; Germany
-116.20715,43.6054854,1,ID 83725; USA
-122.0525,37.41752,4,California 94035; USA
-122.2594606,37.87015100000001,2,California 94720; USA
-75.6091696,41.4367622,2,PA 18512; USA
-113.9842701,46.861557,3,MT 59812; USA
-75.737149,40.533145,1,PA 19530; USA
7.4474468,46.9479739,2,CH-3201 Bern; Switzerland
151.229916,-33.916869,2,Sydney 2052; Australia
20.4489216,44.786568,1,11 060 Belgrade; Serbia
21.0722665,52.212944,2,PL- 00-716 Warszawa; Poland
-2.6020736,51.4584697,2,Bristol BS8 1TL; UK
19.9449799,50.06465009999999,1,Kraków; Poland
-93.2483058,37.1565149,2,65804; USA
-17.7724671,28.6412969,1,Breña Baja; Spain
-3.9975566,40.4481075,1,E-28691 Villanueva de la Cañada; Spain
-8.6393579,41.1502012,9,4150-762 Porto; Portugal
-105.2889726,40.0103247,1,CO 80309; USA
5.7183398,43.92367369999999,2,F-04870 Saint Michel l’Observatoire; France
-8.629105299999999,41.1579438,2,4169-007 Porto; Portugal
-101.2190863,19.6718225,1,C.P. 58089 Michoacán; Mexico
-118.125269,34.1376576,3,California Institute of Technology; USA
16.3191645,48.2358641,1,Vienna 1180; Austria
2.213749,46.227638,2,France cedex; France
19.8186982,41.3275459,2,Tirana; Albania
18.1750161,40.3515155,2,Lecce; Italy
7.427328599999999,46.9588575,2,CH-3012; Switzerland
17.6389267,59.85856380000001,1,SE-751-20 Upsalla; Sweden
139.5364976,35.67533,2,181-8588 Tokyo; Japan
139.6838097,35.6044614,1,152-8551 Tokyo; Japan
11.3944254,44.5184235,1,I-40127 Bologna; Italy
-3.188267,55.953252,1,Edinburgh; UK
-16.3375493,28.4894267,3,38206 La Laguna; Spain
-3.7866915,43.4717283,1,E-39005 Santander; Spain
11.5819805,48.1351253,2,Munich; Germany
-122.2594606,37.87015100000001,3,94720; USA
-72.9637728,41.3266814,1,06515; USA
-110.9447027,32.2546522,1,85719; USA
-82.9000751,32.1656221,5,GA; USA
19.8968991,50.0790939,2,30-084 Cracow; Poland
-6.6501787,54.352239,1,Armagh BT61 9DG; United Kingdom
-17.766582,28.6392029,1,38711 Breña Baja; Spain
26.4639166,58.2628346,1,61602 Tøravere; Estonia
-1.9308602,52.44897169999999,2,Birmingham B152TT; UK
15.0586639,37.5267674,10,I-95123 Catania; Italy
2.1828032,48.7028006,2,F-91405 Orsay cedex; France
-105.8700901,34.5199402,1,NM 88003-8001; USA
-110.9268201,32.3389931,1,AZ 85718; USA
-105.8700901,34.5199402,1,NM 87545-2345; USA
-118.1528623,34.1561783,1,Pasadena CA 91109; USA
-104.6857493,40.4075503,1,Greeley; CO 80639
11.8704306,45.4003087,12,I-35122; Italy
13.3543969,38.1116229,1,I-90134 Palermo; Italy
-2.8074837,56.3401503,1,St. Andrews KY 16 9SS; UK
-3.5362552,50.7369834,4,Exeter EX4 4QL; UK
4.4186238,52.214817,1,NL-2201 AZ Noordwijk; the Netherlands
-101.8820434,33.5886439,1,TX 79409-1051; USA
-72.9310217,41.3064267,4,CT 06520-8101; USA
2.0910377,41.49733519999999,1,s/n E-08193 Cerdanyola del Vallès (Barcelona); Spain
2.134078,48.701844,1,F-91191 Gifsur-Yvette Cedex; France
-2.8074837,56.3401503,8,Fife KY16 9SS; UK
2.3642198,48.87854189999999,2,F-75000 Paris; France
-8.6393579,41.1502012,2,P-4150-762 Porto; Portugal
5.36978,43.296482,10,F-13388 Marseille; France
-0.7097473999999999,52.0249136,4,Milton Keynes MK7 6AA; UK
-99.133208,19.4326077,1,04510; México
3.0175712,39.6952629,1,Mallorca; Spain
-0.7822089999999999,44.811257,1,Saint-Jean d'Illac; France
-85.4136959,40.1984632,2,IN 47306; USA
121.6283098,-27.6728168,1,Western Australia; Australia
-2.8074837,56.3401503,4,St. Andrews KY16 9SS; UK
-71.1281664,42.3814608,2,60 Garden Street Cambridge; MA 02138 USA
9.9819779,53.5688101,1,D-20146 Hamburg; Germany
14.7278743,40.66794489999999,3,I-84019 Vietri sul Mare (SA); Italy
127.3747104,36.3981875,1,305-348 Daejeon; Korea
51.3889736,35.6891975,1,P.O. Box 11155-9161 Tehran; Iran
-105.2077798,40.0005378,2,CO 80303; USA
147.3271949,-42.8821377,1,Private Bag 37 Hobart; Tasmania 7001 Australia
-155.7134009,20.0390812,1,Hawaii 96743; USA
-79.3974105,43.660818,1,M5S 3H4; Canada
2.0910377,41.49733519999999,1,E-08193 Cerdanyola del Vallès; Spain
5.5711984,50.6385169,3,Liège 1; Belgium
11.5678602,48.14966,1,Technical University of Munich
19.5033041,47.162494,4,15-17; Hungary
19.5033041,47.162494,2,112; Hungary
-111.646528,35.1978369,2,AZ 86002; USA
-2.8074837,56.3401503,1,Fife KY169SS; UK
-83.00122100000002,39.9929821,2,OH 43201; USA
10.2027261,56.1460465,3,DK-8000 Århus C; Denmark
12.583114,55.69452399999999,1,DK-2100 Copenhagen O; Denmark
-122.2570288,37.873113,1,Berkeley CA 94720-3411; USA
72.5713621,23.022505,1,Ahmedabad; India
11.3353359,44.4928421,3,Italy; 40123
18.48102,-33.9657883,1,7700; South Africa
-104.0072348,30.7713229,3,TX-79734; USA
-1.5616976,52.3800625,5,Coventry-CV4 7AL; UK
-79.0581498,35.905249,1,NC-27599; USA
-97.4421919,35.1879507,1,OK-73019; USA
0.1149085,52.2042666,2,University of Cambridge; UK
-110.9488008,32.2332841,3,AZ 85721-0065; USA
-111.9311939,33.4183159,1,85287; USA
-2.7073842,53.7613383,4,Preston PR1 2HE; UK
140.8444279,38.2553603,1,Sendai 980-8578; Japan
21.0722665,52.212944,2,PL-00-716 Warsaw; Poland
19.0135474,46.18030659999999,1,H-6500 Baja; Hungary
15.970761,45.8348464,1,10000 Zagreb; Croatia
17.6389267,59.85856380000001,1,Uppsala; Sweden
-71.2519374,-29.9026691,1,LaSerena; Chile
-122.0838511,37.3860517,1,Mountain View; CA
151.20461,-33.89333999999999,1,Redfern; Australia
-0.2467997,51.7617561,1,University of Hertfordshire; UK
5.57132,50.59139,1,B-4000 Sart Tilman; Belgium
-76.8632581,38.9916589,1,Maryland 20771; USA
5.5628874,50.63507569999999,5,4000 Liège; Belgium
-76.6008334,39.3322127,2,Maryland 21218; USA
-117.2338066,32.88435520000001,1,California 92093; USA
-95.09110620000001,29.5642078,1,Texas 77058; USA
-116.20715,43.6054854,1,Boise ID 83725; USA
-83.6694169,42.3053253,1,48109; USA
-0.2436831,51.753849,1,University of Hertfordshire
7.427328599999999,46.9588575,1,3012 Bern; Switzerland
5.5628874,50.63507569999999,1,B-4000 Liege; Belgium
-122.3084023,47.6508882,1,WA 98195-1580; USA
101.3431058,24.4752847,1,Yunnan; China
-74.0094471,40.7217861,1,NY 10013; USA
8.5079308,47.4079311,1,CH-8093 Zurich; Switzerland
-77.0622028,38.9656971,4,Washington DC 20015-1305; USA
2.213749,46.227638,50,European Pro/Am Network of Exoplanetary Transit Observers; France
14.7278743,40.66794489999999,1,I-84019 Vietri Sul Mare (SA); Italy
21.0122287,52.2296756,1,PL-00-478 Warszawa; Poland
-71.4418101,42.4836453,1,MA 01720; USA
-112.1430215,37.1052853,1,UT 84741; USA
-118.1247032,34.1378866,7,California 91125; USA
-110.9488008,32.2332841,1,Arizona 85721; USA
8.547669899999999,47.376313,1,ETH Zürich
-122.2594606,37.87015100000001,1,Berkeley CA 94720; USA
18.9644858,47.50001710000001,14,Konkoly Thege Miklós út 15-17; Hungary
11.671462,48.2609911,2,D-85741 Garching; Germany
19.9135021,47.4870051,10,Szent Imre herceg út 112; Hungary
10.451526,51.165691,1,IMPRS-HD; Germany
26.4639166,58.2628346,1,61602 Tõravere; Estonia
24.9510419,60.1726348,1,FI-00014 University of Helsinki; Finland
22.5232338,60.42633249999999,2,FI-21500 Piikkiö; Finland
7.299095299999999,43.7273864,1,Observatoire de la Côte d'Azur; France
3.138063,50.609049,2,Univ Lille; France
140.8721,38.2688373,1,Miyagi 980-0857; Japan
139.5222643,35.7101337,1,Tokyo 184-8584; Japan
-105.8700901,34.5199402,1,NM 88003-4500; USA
-77.03053899999999,38.908229,1,DC 20005; USA
-106.8414374,34.1054432,1,NM 87801; USA
-119.4179324,36.778261,1,CA 947200-3411; USA
-122.2594606,37.87015100000001,1,CA 94720-4767; USA
-74.6568772,40.3467174,1,Princeton NJ 08544; USA
-122.1689284,37.4135757,1,CA 94305; USA
100.2658516,16.8211238,1,Phitsanulok 65000; Thailand
99.85714159999999,20.0077042,1,57100; Thailand
12.5113741,55.7841732,1,DK-2800 Lyngby; Denmark
19.5033041,47.162494,1,13-15; Hungary
0.121817,52.205337,2,Cambridge; UK
-118.2436849,34.0522342,2,Los Angeles CA 90095-1562; USA
11.8704306,45.4003087,8,Padova IT-35122; Italy
-81.89890799999999,26.5545224,5,Fort Myers; FL 33919 USA
139.6423446,35.4475073,1,Kanagawa; Japan
19.5033041,47.162494,1,PO. Box 148; Hungary
-3.9975566,40.4481075,2,E-28691 Villanueva de la Cañada (Madrid); Spain
7.277699999999999,43.698874,4,F-06300 Nice; France
1.688438,43.477046,3,F-31450 Varennes; France
5.7183398,43.92367369999999,1,F-04870 Saint Michel l'Observatoire; France
-155.7134009,20.0390812,1,HI 96743; USA
1.444209,43.604652,1,F-31028 Toulouse cedex 4; France
14.1989038,40.864297,1,I-80131 Naples; Italy
10.39752,43.7193747,1,I-56126 Pisa; Italy
-71.20426189999999,42.50057229999999,1,MA 01803; USA
-155.4719335,19.8262299,1,Visiting Astronomer at the Infrared Telescope Facility at the University of Hawaii; USA
-3.435973,55.378051,1,United Kingdom
16.6108367,47.2336602,3,H-9700 Szombathely; Hungary
21.0722665,52.212944,2,PL-00-716 Warszawa; Poland
-123.3229396,48.4464362,1,BC V8P 5J2; Canada
4.3836284,51.1890846,1,B-2020 Antwerp; Belgium
-71.1032591,42.36475590000001,1,Massachusetts 02139; USA
-73.5436479,45.50232,1,Quebec H3C 3J7; Canada
-113.9842701,46.861557,1,Montana 59812; USA
151.229916,-33.916869,1,New South Wales 2052; Australia
-77.8638835,40.8084075,1,Pennsylvania 16802; USA
-36.954107,-5.402580299999999,1,RN; Brazil
19.0254446,47.5529474,3,Hungarian Astronomical Association (HAA); Hungary
-81.7622951,26.4588273,1,FL 33965; USA
-105.2407974,40.0182875,1,4750 Walnut street Suite 205 Boulder; CO 80301 USA
12.4963655,41.9027835,1,Roma; Italy
2.0910377,41.49733519999999,1,s/n E-08193 Cerdanyola del Valls; Spain
-79.4916555,43.7638,1,ON M3J 1P2; Canada
-70.6692655,-33.4488897,1,Santiago 19001; Chile
10.1227651,54.3232927,1,D-24098 Kiel; Germany
116.3160767,39.9912326,1,Beijing 100871; China
149.1300092,-35.2809368,2,Canberra; Australia
9.0576448,48.5216364,1,Tübingen; Germany
5.8372264,51.8125626,1,6500 GL Nijmegen; The Netherlands
-0.22309,51.763366,1,Hatfield; UK
7.427328599999999,46.9588575,1,CH-3012 Bern; Switzerland
-101.0020119,47.5514926,1,ND; USA
6.024053899999999,47.237829,1,Besançon; France
25.594752,-25.8377623,1,Mmabatho 2735; South Africa
-155.7134009,20.0390812,1,HI96743; USA
-1.2598873,51.7602725,1,Oxford OX1 3PJ; UK
10.2027261,56.1460465,1,8000 Aarhus C; Denmark
-2.9698078,53.4054599,1,Liverpool L3 5RF; UK
19.8968991,50.0790939,2,30-084 Kraków; Polska
18.6264694,-33.8812733,1,7535 Cape; South Africa
-104.6064538,38.26793070000001,1,David; and Lucile Packard Fellow.
9.2296929,45.47137,2,I-20133 Milano; Italy
-123.2611098,49.2684344,1,BC V6T1Z1; Canada
-60.19491539999999,46.1390228,1,Sydney NS B1P 6L2; Canada
-118.125269,34.1376576,1,Caltech Joint Center for Planetary Astronomy Fellow.
-1.2577263,51.7520209,1,Oxford; UK
-63.5817947,44.6311305,1,NS B3H 3C3; Canada
16.3191645,48.2358641,2,A-1180 Wien; Austria
-71.0388287,45.3643773,1,QC J0B 2E0; Canada
-73.9964609,40.72951339999999,1,New York University
1.4531355,43.5611027,1,F-31400 Toulouse; France
25.2692084,54.692348,1,Vilnius LT-01108; Lithuania
-97.73488049999999,30.2835151,3,TX 78712; USA
4.3515499,50.8427501,1,B-1000 Bruxelles; Belgium
