lon,lat,count,name
51.3889736,35.6891975,1,19395-5746 Tehran; Iran
116.4073963,39.90419989999999,9,Beijing; China
-2.8074837,56.3401503,15,St Andrews KY16 9SS; UK
7.769664400000001,45.0445643,28,I-10025 Pino Torinese; Italy
0.0927876,52.2090647,30,Cambridge CB3 0HE; UK
12.5113741,55.7841732,3,DK-2800 Kgs. Lyngby; Denmark
-97.73488049999999,30.2835151,254,TX 78712; USA
-71.13891009999999,42.3803274,865,MA 02138; USA
-73.2460582,42.3043674,23,MA 01238; USA
11.8704306,45.4003087,66,I-35122 Padova; Italy
-122.2594606,37.87015100000001,295,CA 94720; USA
-8.6393579,41.1502012,13,PT4150-762 Porto; Portugal
-3.1745458,55.9215497,1,Edinburgh EH93FD; UK
-5.934759199999999,54.5838629,31,Belfast BT7 1NN; UK
13.3543969,38.1116229,10,I-90134 Palermo; Italy
6.159288999999999,46.28916299999999,11,Sauverny CH-1290; Switzerland
-16.6291304,28.2915637,374,Tenerife; Spain
9.1629372,39.2596768,1,I-09047 Selargius; Italy
9.4065471,45.6983647,3,I-23807 Merate (LC); Italy
-91.18330429999999,30.372807,5,70820; USA
-71.13891009999999,42.3803274,34,02138; USA
-81.5157535,27.6648274,1,Florida; USA
4.469936,50.503887,10,Werkgroep Veranderlijke Sterren; Belgium
-119.4179324,36.778261,9,California; USA
-81.0533854,29.0034265,1,32168; USA
-105.6412527,38.3883641,1,81223; USA
-2.5665966,53.4098401,1,Cheshire WA2 0GN; UK
-1.5616976,52.3800625,183,Coventry CV4 7AL; UK
26.4361327,62.38944069999999,3,Hankasalmi; Finland
-105.5108312,39.9613759,1,Nederland Colorado; USA
0.0953282,52.2145316,48,Cambridge CB3 0HA; UK
19.8968991,50.0790939,3,30-084 Kraków; Polska
-93.28257029999999,37.1960443,52,MO 65897; USA
-17.766582,28.6392029,2,38711 Breña Baja; Spain
12.9573975,52.40383809999999,2,Golm; Germany
18.6264694,-33.8812733,1,Bellville 7535; South Africa
-71.61268849999999,-33.047238,4,Valparaíso 2360102; Chile
-6.6501787,54.352239,26,Armagh BT61 9DG; UK
-1.486084,53.3809845,16,Sheffield S3 7RH; UK
20.1504896,46.2502494,4,H-6720 Szeged; Hungary
16.6108367,47.2336602,8,H-9700 Szombathely; Hungary
-82.371937,29.6130239,46,FL 32611; USA
-104.8571368,38.994425,1,CO 80840; USA
-43.2260955,-22.8949877,8,RJ 20921-400; Brazil
-51.2176986,-30.0346316,3,RS 91501-970; Brazil
13.1028717,52.3875629,22,D-14482 Potsdam; Germany
-43.1874135,-22.8979556,1,RJ 20080-090; Brazil
-78.510016,38.0340277,8,VA 22904; USA
-77.8638835,40.8084075,133,PA 16802; USA
-75.3761952,40.5967701,16,PA 18015; USA
-86.80411509999999,36.1489935,53,TN 37235; USA
37.6172999,55.755826,1,119992 Moscow; Russia
-105.8700901,34.5199402,5,NM 88349-0059; USA
172.5780878,-43.5261634,4,Christchurch 8041; New Zealand
-1.3956847,50.934189,5,Southampton SO17 1BJ; UK
-0.2421732,51.7528765,5,Hertfordshire AL10 9AB; UK
-101.8820434,33.5886439,5,TX 79409-1051; USA
-1.9308602,52.44897169999999,208,Birmingham B15 2TT; UK
10.2027261,56.1460465,867,DK-8000 Aarhus C; Denmark
-0.5879459,51.24257189999999,1,Guildford GU2 7XH; United Kingdom
-117.072053,32.7759882,110,CA 92182; USA
-123.3647699,48.425114,1,V8W 2Y2; Canada
17.6389267,59.85856380000001,4,SE-751 20 Uppsala; Sweden
-89.42692869999999,43.1054334,14,WI 53706; USA
-104.0072348,30.7713229,13,TX 79734; USA
13.1910073,55.7046601,17,SE-221 00 Lund; Sweden
151.229916,-33.916869,3,Sydney NSW 2052; Australia
-76.6008334,39.3322127,132,MD 21218; USA
-71.1032591,42.36475590000001,229,MA 02139; USA
-106.346771,56.130366,3,H3T J4; Canada
-118.1528623,34.1561783,94,CA 91109; USA
-118.1268976,34.1456654,15,CA 91106; USA
-76.8632581,38.9916589,82,MD 20771; USA
-118.1247032,34.1378866,443,CA 91125; USA
-118.5914696,34.4400287,3,CA 91355; USA
8.7202574,49.3928952,8,69117 Heidelberg; Germany
-79.0581498,35.905249,24,NC 27599; USA
-73.96243270000001,40.8138912,49,NY 10027; USA
-122.3084023,47.6508882,106,WA 98195; USA
-122.1689284,37.4135757,90,CA 94305; USA
-110.9447027,32.2546522,104,AZ 85719; USA
-76.860565,39.1426709,4,MD 20723; USA
-1.1743197,52.3555177,1,England; United Kingdom
121.5654177,25.0329694,1,Taipei 10617;Taiwan
-105.3716684,40.038629,18,CO 80302; USA
25.594752,-25.8377623,1,Mmabatho 2745; South Africa
-8.6393579,41.1502012,1,Porto PT4150-762; Portugal
139.7600967,35.7088306,89,Tokyo 113-0033; Japan
-2.7073842,53.7613383,60,Preston PR1 2HE; UK
4.680772999999999,50.8612986,1,Leuven B-3001; Belgium
-74.651754,40.3815302,30,NJ 08540; USA
4.4970097,52.1601144,1,NL-2300 RA Leiden; The Netherlands
-73.1261091,40.9132244,1,NY 11794-3800; USA
13.3283954,52.5070391,17,D-10623 Berlin; Germany
13.5470509,52.4370179,88,D-12489 Berlin; Germany
7.681092100000001,45.0576139,29,I-10125 Torino; Italy
148.7831534,-35.4477412,80,ACT 2611; Australia
-83.01733860000002,39.9990626,126,OH 43210; USA
10.451526,51.165691,1,D-50931Köln; Germany
11.7158452,50.9910636,28,D-07778 Tautenburg; Germany
127.3845475,36.3504119,6,Daejeon 34113; Korea
127.4890319,36.6424341,2,Cheongju 28644; Korea
-74.6568772,40.3467174,102,NJ 08544; USA
11.7158452,50.9910636,30,D-07778 Tautenberg; Germany
139.5364976,35.67533,79,Tokyo 181-8588; Japan
-157.8152491,21.3175493,146,HI 96822; USA
8.7202574,49.3928952,72,D-69117 Heidelberg; Germany
-72.65313139999999,41.558762,19,CT 06459; USA
6.9188847,50.9302584,52,D-50931 Köln; Germany
4.4970097,52.1601144,14,NL-2300 RA Leiden; the Netherlands
11.9466951,57.40058599999999,1,E-439 92 Onsala; Sweden
-17.766582,28.6392029,18,E-38711 Breña Baja; Spain
12.5727765,55.7085326,1,2100 Copenhagen Ø; Denmark
2.0864011,41.5037176,22,E-08193 Bellaterra; Spain
-0.1334268,51.5247725,11,London WC1E 6BT; UK
10.1227651,54.3232927,6,D-24098 Kiel; Germany
-118.5258067,34.2489458,1,CA 91330; USA
10.8808637,49.8729118,6,D-96049 Bamberg; Germany
-3.6927531,40.52506899999999,3,E-28049 Madrid; Spain
-122.0644983,37.4089604,3,NASA Ames Research Center; USA
18.9821804,47.4971726,78,H-1121 Budapest; Hungary
2.23847,48.812995,95,Meudon; France
-1.6777926,48.117266,7,Rennes; France
2.189617,48.697161,25,Orsay Cedex; France
-64.7867011,46.1053892,1,E1A 3E9; Canada
7.261953200000001,43.7101728,5,Nice Cedex; France
-3.5985571,37.1773363,31,Granada; Spain
133.775136,-25.274398,35,2006; Australia
4.7005176,50.8798438,187,Leuven; Belgium
2.134078,48.701844,67,Gif-sur-Yvette; France
-119.8496976,34.4135868,1,93106; USA
2.3432774,48.8484556,5,Sorbonne Paris Cité; France
-8.629105299999999,41.1579438,129,Porto; Portugal
-89.42692869999999,43.1054334,2,53706; USA
5.853572,51.8380601,3,GL Nijmegen; The Netherlands
12.0206589,57.4134952,6,Onsala; Sweden
4.4970097,52.1601144,32,Leiden; The Netherlands
7.686864,45.0703393,21,Torino; Italy
-74.6568772,40.3467174,14,08544; USA
11.7158452,50.9910636,25,Tautenburg; Germany
139.6917064,35.6894875,12,Tokyo; Japan
6.9602786,50.937531,15,Köln; Germany
15.439504,47.070714,20,Graz; Austria
10.2027261,56.1460465,197,Aarhus C; Denmark
139.7600967,35.7088306,16,113-0033; Japan
13.404954,52.52000659999999,59,Berlin; Germany
-97.73488049999999,30.2835151,15,78712; USA
139.5364976,35.67533,13,181-8588; Japan
8.6724335,49.3987524,66,Heidelberg; Germany
-70.6692655,-33.4488897,12,Santiago de Chile; Chile
9.963474999999999,51.56655319999999,11,37077 Göttingen; Germany
10.7522454,59.9138688,1,0315 Oslo; Norway
-122.3035199,47.65533509999999,1,University of Washington; USA
13.1028717,52.3875629,1,14482 Potsdam; Germany
5.36978,43.296482,169,Marseille; France
34.851612,31.046051,4,76100; Israel
34.8056661,32.1166516,2,6997801; Israel
2.1131154,41.39438190000001,2,08034 Barcelona; Spain
-116.6523873,31.8726367,2,22860 Ensenada; México
1.444209,43.604652,49,Toulouse; France
5.5796662,50.6325574,45,Liège; Belgium
-119.4179324,36.778261,4,CA Leiden; The Netherlands
5.1352053,52.0988812,1,CA Utrecht; The Netherlands
-71.1032591,42.36475590000001,11,02139; USA
139.6838097,35.6044614,2,152-8551; Japan
-110.9447027,32.2546522,4,85719; USA
133.5823171,34.564242,2,719-0232; Japan
6.9188847,50.9302584,6,50931 Köln; Germany
-46.63330939999999,-23.5505199,13,SP; Brazil
2.1734035,41.3850639,15,Barcelona; Spain
-122.3084023,47.6508882,6,98195; USA
-2.2336761,53.4667506,14,Manchester M13 9PL; UK
116.4541469,40.0192499,1,100012; People’s Republic of China
79.90010869999999,6.795131899999999,1,Arthur C. Clarke Institute for Modern Technologies; Sri Lanka
-99.9018131,31.9685988,5,TX; USA
-86.2412543,41.7043332,2,46556; USA
80.7872185,6.7145912,1,Sabaragamuwa University of Sri Lanka; Sri Lanka
-76.860565,39.1426709,1,20723; USA
116.3160767,39.9912326,2,Beijing 100871; People's Republic of China
-110.9488008,32.2332841,74,AZ 85721; USA
-8.6393579,41.1502012,58,4150-762 Porto; Portugal
-69.1328491,-23.8634189,1,Atacama; Chile
-3.1878622,55.92320110000001,6,EH9 3HJ; UK
5.7165413,45.18942980000001,20,F-38000 Grenoble; France
11.8767611,45.4064349,47,Padova; Italy
11.6532477,48.2488721,5,85748 Garching; Germany
16.8791369,52.39668649999999,6,60-286 Poznań; Poland
18.9642551,47.5000761,32,Konkoly Thege Miklós út 15-17; Hungary
-3.5838002,37.15490339999999,11,18008 Granada; Spain
116.4541469,40.0192499,3,100012; People's Republic of China
116.3700369,39.9586545,1,100875; People's Republic of China
106.110698,30.837793,3,Nanchong 637002; People's Republic of China
118.7768169,32.056266,1,210093; People's Republic of China
-122.0723816,37.428434,322,CA 94043; USA
-73.98153370000001,40.7388319,3,NY 10010; USA
-73.9874105,40.7322535,13,NY 10003; USA
-45.1847569,-22.8004795,2,CEP 12516-410 São Paulo; Brazil
-0.630386,44.80583,6,F-33615 Pessac; France
116.3700369,39.9586545,6,Beijing 100875; People’s Republic of China
4.3559193,50.7904904,16,B-1180 Brussel; Belgium
116.4541469,40.0192499,5,Beijing 100012; People’s Republic of China
15.0586639,37.5267674,50,I-95123 Catania; Italy
-110.9488008,32.2332841,8,AZ 85721-0065; USA
17.0838432,51.1075344,53,51-622 Wrocław; Poland
-81.6795209,36.2139148,4,NC 28608; USA
116.3160767,39.9912326,1,100871; People’s Republic of China
118.7768169,32.056266,1,Nanjing 210093; People’s Republic of China
118.8358868,32.0891328,1,Nanjing 210042; People’s Republic of China
4.8648454,52.3335596,1,1081HV Amsterdam; The Netherlands
4.3559193,50.7904904,2,1180 Brussels; Belgium
4.680772999999999,50.8612986,48,3001 Leuven; Belgium
3.7106183,50.99980619999999,2,9052 Zwijnaarde; Belgium
11.5713346,49.9456399,2,95440 Bayreuth; Germany
-1.9308602,52.44897169999999,121,B15 2TT; UK
151.229916,-33.916869,29,NSW 2052; Australia
-70.6692655,-33.4488897,103,Santiago; Chile
-3.1878622,55.92320110000001,9,Edinburgh EH9 3HJ; UK
-3.188267,55.953252,4,Edinburgh; UK
-97.73488049999999,30.2835151,3,Austin; TX 78712
10.2030118,56.1681384,3,Aarhus University; DK-8000 Denmark
18.5984437,53.0137902,10,87-100 Toruń; Poland
-1.6074983,54.9767623,2,Newcastle upon Tyne NE1 8ST; UK
-0.4207069,51.1719559,6,Surrey RH5 6NT; UK
-0.1746923,51.4993098,2,London SW7 2AZ; UK
-122.0581762,36.9923139,110,CA 95064; USA
2.3518339,48.8434912,1,F-75005 Paris; France
-5.8545077,43.3636198,7,E-33004 Oviedo; Spain
-16.3375493,28.4894267,2,E-38206 Tenerife; Spain
-5.8525291,43.3547028,2,E-33007 Oviedo; Spain
-16.3007626,28.4868465,13,E-38205 Tenerife; Spain
6.1657813,46.2876938,41,CH-1290 Versoix; Switzerland
-17.7902707,28.6303668,1,E-38712 La Palma; Spain
-5.6195112,43.5428512,1,E-33203 Oviedo; Spain
-3.68134,40.4351996,2,E-28006 Madrid; Spain
10.2027261,56.1460465,2,DK 8000 Aarhus C; Denmark
4.680772999999999,50.8612986,141,B-3001 Leuven; Belgium
5.842828099999999,51.8448837,18,6500 GL Nijmegen; The Netherlands
4.696757799999999,50.88151970000001,2,B-3000 Leuven; Belgium
10.2027261,56.1460465,104,8000 Aarhus C; Denmark
-85.323214,51.253775,3,Ontario; Canada
2.23847,48.812995,28,92195 Meudon; France
13.1910073,55.7046601,10,Lund; Sweden
149.1213974,-35.28099419999999,1,ACT 2601; Australia
139.6838764,35.6044669,2,152-8550; Japan
13.5470509,52.4370179,10,12489 Berlin; Germany
139.6838097,35.6044614,48,Tokyo 152-8551; Japan
11.9466951,57.40058599999999,3,439 92 Onsala; Sweden
11.3394826,44.5216099,2,I-40129 Bologna; Italy
13.3283954,52.5070391,1,10623 Berlin; Germany
14.1989038,40.864297,20,I-80131 Napoli; Italy
6.5665017,53.2193835,3,Groningen; The Netherlands
13.3491095,52.4273401,1,12249 Berlin; Germany
-17.7651015,28.6887569,6,E-38700; Spain
136.9666187,35.1386184,2,Aichi 466-8666; Japan
120.0862416,30.3087855,2,310058; People's Republic of China
-79.3981142,43.6608838,10,ON M5S 3H8; Canada
21.0122287,52.2296756,59,00-478 Warszawa; Poland
127.3845475,36.3504119,6,Daejon 34055; Republic of Korea
116.3288577,40.0006896,1,Beijing 100084; People's Republic of China
-79.1880063,43.781841,5,M1C 1A4; Canada
-91.17999999999999,30.41,8,Baton Rouge; LA 70803 USA
-122.0525,37.41752,11,CA 94035-0001; USA
2.3365123,48.8358925,1,LESIA - Paris Observatory - PSL
-122.6420207,38.235501,20,CA 94952; USA
-95.712891,37.09024,2,IN 46566; USA
98.9024603,18.9028017,1,Chiang Mai 50180; Thailand
98.93557369999999,18.7952345,4,Chiang Mai 50200; Thailand
-72.9310217,41.3064267,75,CT 06520-8101; USA
9.963474999999999,51.56655319999999,50,D-37077 Göttingen; Germany
116.3094073,37.4911306,1,Dezhou 253023; People’s Republic of China
23.7275388,37.9838096,8,Athens; Greece
18.9642551,47.5000761,9,Konkoly Thege M. út 15-17; Hungary
18.0685808,59.32932349999999,5,Stockholm; Sweden
9.915803499999999,51.54128040000001,77,Göttingen; Germany
11.1709899,50.3601821,1,Sonneberg; Germany
-1.256313,51.7599982,1,Oxford OX1 3PU; UK
-111.9311939,33.4183159,3,85287; USA
-87.603826,41.7805099,61,IL 60637; USA
-122.0525,37.41752,1446,CA 94035; USA
-105.2077798,40.04065060000001,73,CO 80301; USA
4.961308,52.35472439999999,2,XH Amsterdam; The Netherlands
-73.61315359999999,45.5058219,4,H3T 1J4; Canada
-118.1386005,34.1427587,39,CA 91101; USA
-76.944141,38.9908487,18,MD 20742; USA
-76.9873477,42.8361156,15,NY 14456; USA
-79.3974105,43.660818,26,ON M5S 3H4; Canada
-71.13891009999999,42.3803274,43,Cambridge; MA 02138 USA
118.7768169,32.056266,9,Nanjing 210093; People's Republic of China
-115.1381487,36.1451645,3,NV 89154; USA
-72.9283391,41.3212912,95,CT 06511; USA
-120.7401385,47.7510741,5,WA; USA
-74.0059728,40.7127753,10,NY; USA
-119.4179324,36.778261,148,CA; USA
-76.64127119999999,39.0457549,16,MD; USA
-82.90712300000001,40.4172871,4,OH; USA
-96.7386946,32.97602940000001,1,TX 75080; USA
-77.0622028,38.9656971,20,DC 20015; USA
22.9307881,54.1115218,1,Suwałki; Poland
-82.5510469,35.6304783,2,NC 28804; USA
-71.2519374,-29.9026691,15,La Serena; Chile
30.3350986,59.9342802,3,Saint Petersburg; Russia
18.5700636,-33.9142871,2,Cape 2735; South Africa
54.433868,24.5231545,1,PO Box 129188 Abu Dhabi; UAE
-0.630386,44.80583,1,F-33165 Pessac; France
5.5628874,50.63507569999999,22,B-4000 Liège; Belgium
-46.63330939999999,-23.5505199,2,CEP 12.516-410 São Paulo; Brazil
2.2265084,48.80556929999999,25,F-92195 Meudon; France
1.4531355,43.5611027,14,F-31400 Toulouse; France
2.1457119,48.7072212,20,F-91191 Gif-sur-Yvette; France
-36.954107,-5.402580299999999,30,RN; Brazil
119.0267339,32.163948,4,Nanjing 210023; China
118.7963723,32.0526671,1,Nanjing 210096; China
116.4541469,40.0192499,66,Beijing 100012; China
-75.3353875,40.0468052,56,PA 19085; USA
2.23847,48.812995,88,Meudon Cedex; France
16.3738189,48.2081743,34,Vienna; Austria
-2.274598300000001,53.0039516,64,ST5 5BG; UK
9.0576448,48.5216364,8,Tübingen; Germany
-118.8741429,34.2024698,2,91360; USA
-72.9637728,41.3266814,30,CT 06515; USA
12.5769626,55.6876505,2,DK-1350 Copenhagen K.; Denmark
-118.125269,34.1376576,6,California Institute of Technology; USA
-73.61375919999999,45.5056156,1,Université de Montréal; Canada
-86.2412543,41.7043332,35,IN 46556; USA
-83.624201,41.6735366,1,43606; USA
-16.3159061,28.4874009,56,E-38206 La Laguna; Spain
11.9466951,57.40058599999999,22,SE-439 92 Onsala; Sweden
-16.3007626,28.4868465,1,38205 La Laguna; Spain
4.4564808,52.16850770000001,5,2333CA Leiden; The Netherlands
-79.01929969999999,35.7595731,42,NC 27599-3255; USA
-155.2382164,19.7031566,29,HI 96720-2700; USA
37.6172999,55.755826,76,Moscow; Russia
30.3350986,59.9342802,19,St. Petersburg; Russia
-2.2426305,53.4807593,2,Manchester; UK
19.040235,47.497912,78,Budapest; Hungary
79.4635658,29.3803039,7,Nainital; India
121.3009798,24.9936281,6,Taoyuan city; Taiwan
120.960515,23.69781,1,32001; Taiwan
-116.6229069,31.8687051,1,22800; México
-99.99619469999999,25.592172,4,N.L.; México
-2.2336761,53.4667506,1,Manchester M13 9P; UK
19.8254293,50.0424424,11,Kraków 30-244; Poland
19.8968991,50.0790939,5,Kraków 30-084; Poland
22.2666302,60.4518126,7,FI-21500 Turku; Finland
12.385052,43.1136937,1,I-06123 Perugia; Italy
-74.4056612,40.0583238,4,NJ 08628-0718; USA
72.8615426,19.0717612,1,Mumbai 400098; India
29.8091335,59.86069009999999,1,198504 St. Petersburg; Russia
-71.1002881,42.3476181,37,MA 02215; USA
-83.6694169,42.3053253,2,Ann Arbor MI 48109; USA
-81.6795209,36.2139148,1,NC 28608; USA
135.6495995,34.5508667,14,Osaka 582-8582; Japan
-3.9521382,40.4606098,1,E-28692 Madrid; Spain
-2.9700234,53.4057454,1,Brownlow Hill L3 5RF; UK
26.408587,40.14671999999999,2,TR-17100 Canakkale; Turkey
71.1923805,22.258652,1,Gujrat; India
30.5234,50.4501,8,Kyiv; Ukraine
-0.3760125,39.4690149,1,E-46002 Valencia; Spain
-1.4704598,51.5937488,1,Wantage OX12 9TX; UK
24.029717,49.839683,1,79005 Lviv; Ukraine
2.1734035,41.3850639,1,E-0875 Barcelona; Spain
-3.7873268,37.7660232,1,E-23001 Jaen; Spain
-75.75023139999999,39.6673566,33,DE 19716; USA
23.3877614,42.65626049999999,13,Sofia 1784; Bulgaria
41.2266007,39.9025056,1,TR-25240 Erzurum; Turkey
-2.6983868,43.2204286,1,Bizkaia; Spain
-17.7651015,28.6887569,10,E-38700 Santa Cruz de La Palma; Spain
-6.3598367,43.5328129,1,E-33780 Valdés; Spain
-3.667394199999999,40.3681942,1,E-28053 Madrid; Spain
79.4647633,29.3764941,7,Nainital 263002; India
-61.222503,10.691803,3,Trinidad; West Indies
49.1214925,55.7909325,1,Kazan 420008; Russia
-1.1305704,51.2408004,1,Hampshire RG22 4PP; UK
140.8444279,38.2553603,8,Sendai 980-8578; Japan
38.2216491,37.7815617,2,TR-02040 Adiyaman; Turkey
71.1923805,22.258652,1,Gujarat; India
127.3747104,36.3981875,1,Daejeon 305-348; Republic of Korea
-0.7129006999999999,38.2801532,1,E-03206 Elche; Spain
11.5632868,50.9044763,18,D-07745 Jena; Germany
-107.9057813,32.8877465,1,NM 88041; USA
12.7152505,41.8181871,2,I-00040 Monteporzio Catone; Italy
-1.8734797,52.5456022,3,Birmingham B44 0QE; UK
77.6363267,12.9222299,2,Bangalore 560 034; India
0.7610053,42.0007934,1,E-25691 Ager; Spain
11.6532477,48.2488721,27,D-85748 Garching; Germany
-5.9488975,37.3747865,1,E-41006 Sevilla; Spain
14.4378005,50.0755381,1,Prague 16627; Czech Republic
1.2444909,41.1188827,1,Tarragona; Spain
-98.19669429999999,19.0444606,2,Puebla 72000; México
-80.3770443,25.7538975,1,FL 33199; USA
7.8891785,48.0033988,3,D-79104 Freiburg; Germany
15.5265559,51.939764,2,PL-65-516 Zielona Góra; Poland
-122.2594606,37.87015100000001,53,CA 94720-3411; USA
16.6068371,49.1950602,3,611 37 Brno; Czech Republic
-77.0172233,38.826107,1,DC 20375; USA
116.2228228,39.91157339999999,12,Beijing 100049; People's Republic of China
87.5395855,42.5246357,5,Xinjiang; People's Republic of China
-0.3536548,39.4729669,2,E-46021 Valencia; Spain
-86.80411509999999,36.1489935,1,Nashville TN 37235; USA
14.4896074,46.0363798,2,SI-1000 Ljubljana; Slovenia
-75.3353875,40.0468052,1,Villanova PA 19085; USA
-75.3995089,40.0600713,1,PA 19087; USA
17.0838432,51.1075344,22,PL-51-622 Wrocław; Poland
14.544733,53.43595879999999,6,PL-70-451 Szczecin; Poland
18.5984437,53.0137902,8,PL-87-100 Toruń; Poland
5.865272,51.81670099999999,19,NL-6500 GL Nijmegen; the Netherlands
-118.8741429,34.2024698,1,CA 91360; USA
133.775136,-25.274398,7,Center of Excellence for Astrophysics in Three Dimensions (ASTRO-3D); Australia
151.1883894,-33.8877655,276,NSW 2006; Australia
145.1348243,-37.9104511,1,Clayton VIC 3800; Australia
151.134494,-33.7934648,6,NSW 2113; Australia
14.4896074,46.0363798,11,1000 Ljubljana; Slovenia
-78.6568942,37.4315734,26,VA 22904-4325; USA
172.6362254,-43.5320544,4,Christchurch; New Zealand
151.9533185,-27.5564884,7,Queensland 4350; Australia
115.8107681,-31.9820615,2,WA 6009; Australia
11.50962,45.8758852,1,36012 Asiago; Italy
146.921099,-31.2532183,1,NSW 2751; Australia
-2.274598300000001,53.0039516,36,Staffordshire ST5 5BG; UK
2.1457119,48.7072212,57,F-91191 Gif-sur-Yvette Cedex; France
15.970761,45.8348464,7,10000 Zagreb; Croatia
2.2265084,48.80556929999999,11,F-92195 Meudon Cedex; France
16.3191645,48.2358641,50,A-1180 Vienna; Austria
9.963474999999999,51.56655319999999,2,D-37077Göttingen; Germany
-70.6692655,-33.4488897,1,19001 Santiago de Chile; Chile
-71.82717389999999,45.3667531,8,QC J1M 1Z7; Canada
-110.1879106,31.3957613,10,AZ 85615; USA
115.7752703,-31.9685608,1,Western Australia 6010; Australia
11.7363208,55.6079865,5,DK-4340 Tølløse; Denmark
-122.1277465,47.55770769999999,4,WA 98006; USA
-122.1492224,48.0563616,4,WA 98270; USA
-118.1247032,34.1378866,1,CA91125; USA
-70.6692655,-33.4488897,3,Santiago 7820436; Chile
-71.61268849999999,-33.047238,9,Valparaíso; Chile
6.159288999999999,46.28916299999999,1,CH-1290 Sauverny; Suisse
-77.8599084,40.7982133,5,The Pennsylvania State Univ. (United States)
-76.9852164,42.8581166,1,Hobart and William Smith Colleges (United States)
-122.3035199,47.65533509999999,1,Univ. of Washington (United States)
-117.8442962,33.6404952,1,Univ. of California; Irvine (United States)
-110.9488008,32.2332841,6,85721; USA
7.769664400000001,45.0445643,33,Pino Torinese; Italy
6.114234,46.315994,41,Sauverny; Switzerland
5.724524,45.188529,32,Grenoble; France
-76.8632581,38.9916589,4,20771; USA
-2.8074837,56.3401503,25,KY16 9SS; UK
13.3612671,38.1156879,12,Palermo; Italy
15.0830304,37.5078772,61,Catania; Italy
13.7768182,45.6495264,5,Trieste; Italy
9.4065471,45.6983647,3,Merate; Italy
12.5683372,55.6760968,7,Copenhagen; Denmark
-17.7724671,28.6412969,13,Breña Baja; Spain
14.26812,40.8517983,8,Napoli; Italy
-122.2594606,37.87015100000001,12,94720; USA
-122.439783,37.717703,1,CA; Italy
-3.1878622,55.92320110000001,10,EH93HJ; UK
-5.934759199999999,54.5838629,9,BT7 1NN; UK
-120.7401385,47.7510741,1,Washington; USA
-115.2837585,30.8406338,4,B.C.; México
10.7522454,59.9138688,1,Oslo; Norway
145.1348243,-37.9104511,8,3800; Australia
101.3431058,24.4752847,3,Yunnan Province; PR China
2.0864011,41.5037176,12,Bellaterra; Spain
13.0644729,52.3905689,45,Potsdam; Germany
10.203921,56.162939,20,Aarhus; Denmark
9.9936819,53.5510846,32,Hamburg; Germany
11.619787,44.8381237,1,Ferrara; Italy
-87.603826,41.7805099,3,60637; USA
25.2796514,54.6871555,4,Vilnius; Lithuania
77.62210910000002,12.9261382,1,560034; India
-70.39750219999999,-23.6509279,4,Antofagasta; Chile
41.480843,43.6027053,1,369167; Russia
60.6057025,56.83892609999999,2,Yekaterinburg; Russia
30.3283597,59.75553369999999,2,196140; Russia
6.1657813,46.2876938,86,Versoix; Switzerland
-58.3815591,-34.6036844,6,Buenos Aires; Argentina
5.715193999999999,43.910292,9,Saint-Michel-l'Observatoire; France
2.1828032,48.7028006,35,91405 Orsay Cedex; France
2.3522219,48.856614,36,Paris; France
31.1655799,48.379433,3,03680; Ukraine
72.5641077,23.0314594,1,380009; India
-84.2883519,30.4407853,2,32306-4350; USA
-117.0125641,46.7258512,5,83844; USA
-1.5595883,52.3830386,1,7AL; UK
0.4709273,50.84166459999999,1,9SS; UK
11.764458,55.614538,1,Tølløse; Denmark
72.5641077,23.0314594,10,Ahmedabad 380009; India
-118.3754131,33.865913,1,CA 90278; USA
-82.9000751,32.1656221,29,GA 30302-5060; USA
-111.9403254,33.4366655,5,AZ 85281; USA
4.9035614,52.3679843,11,1090 GE Amsterdam; The Netherlands
-71.10920120000002,42.4274971,1,MA 02155; USA
-83.624201,41.6735366,1,OH 43606; USA
-84.3883717,33.755711,8,GA 30303; USA
-118.8829816,34.2942772,2,CA 93021; USA
8.7202574,49.3928952,2,D-69117; Germany
-72.9310217,41.3064267,30,CT 06520; USA
-117.2338066,32.88435520000001,19,CA 92093; USA
12.5683372,55.6760968,57,DK-1350 Copenhagen; Denmark
-122.4894588,48.7562157,16,WA 98225; USA
4.4970097,52.1601144,1,2300RA Leiden; The Netherlands
-117.3311106,33.9756518,4,CA 92521; USA
12.6331035,41.8620235,4,I-00133 Roma; Italy
-37.3193046,-5.2137844,1,IFRN; Brazil
18.9821804,47.4971726,7,1121 Budapest; Hungary
-71.3646236,42.6460285,1,MA 01854; USA
-8.629105299999999,41.1579438,1,PT-4169-007 Porto; Portugal
77.5642728,13.029156,1,Bangalore -- 560012; India
-1.5604804,52.3857667,4,Coventry CV4 7HS; UK
-1.1238104,52.62191929999999,24,Leicester LE1 7RH; UK
-8.6365992,41.1517271,4,P-4169-007 Porto; Portugal
-63.61667199999999,-38.416097,4,Consejo Nacional de Investigaciones Científicas y Técnicas (CONICET); Argentina
-64.1887761,-31.42008329999999,2,Córdoba X5000GBR; Argentina
-1.5616976,52.3800625,76,CV4 7AL; UK
-1.486084,53.3809845,4,S3 7RH; United Kingdom
-97.9647269,29.5688411,1,Seguin; TX 78155
0.0953282,52.2145316,1,CB3 0HA; United Kingdom
10.2027261,56.1460465,5,DK-8000 Aarhus; Denmark
122.0457994,37.5142399,1,Weihai 264209; China
121.4405537,31.1962451,1,Shanghai 200030; China
-76.48305789999999,42.4467049,20,NY 14853; USA
-63.61667199999999,-38.416097,1,1428; Argentina
8.5469023,47.3982696,5,CH-8057 Zürich; Switzerland
-37.3412768,-5.1900263,2,59610-090 Mossoró; Brazil
27.2058765,38.4502845,3,Bornova; İzmir 35100 Turkey
2.213749,46.227638,2,F-31400Toulouse; France
116.3700369,39.9586545,1,Beijing100875; P. R. China
4.469936,50.503887,1,B-4000Liège; Belgium
-73.5436479,45.50232,22,QC H3C 3J7; Canada
-93.2806806,37.2005546,6,Missouri StateUniversity; United States of America
19.9449799,50.06465009999999,2,Krakow; Poland
-16.2518467,28.4636296,6,Santa Cruz de Tenerife; Spain
-6.652792,54.3502798,2,Armagh; Ireland
-77.67434449999999,43.0845894,2,Rochester Institute of Technology (United States)
-122.0644983,37.4089604,1,NASA Ames Research Ctr. (United States)
-79.39565640000001,43.6628917,1,Univ. of Toronto (Canada)
8.547669899999999,47.376313,2,ETH Zurich (Switzerland)
149.118527,-35.2776999,1,The Australian National Univ. (Australia)
5.559063999999999,50.5830803,2,Liège Univ. (Belgium)
7.438119,46.9504896,1,Univ. Bern (Switzerland)
-3.7037902,40.4167754,58,Madrid; Spain
-118.1247032,34.1378866,31,91125; USA
-0.630386,44.80583,7,Pessac; France
-70.644776,-33.4429412,9,Santiago 19; Chile
7.4474468,46.9479739,22,Bern; Switzerland
8.541694,47.3768866,4,Zurich; Switzerland
0.0927876,52.2090647,5,CB3 0HE; UK
-117.2338066,32.88435520000001,1,92093; USA
-95.09110620000001,29.5642078,1,77058; USA
2.134078,48.701844,63,Gif-sur-Yvette Cedex; France
18.9646829,47.5003349,1,Konkoly Thege ut. 13-15; Hungary
-8.4756035,51.8985143,5,Cork; Ireland
-3.5838002,37.15490339999999,4,E-18008 Granada; Spain
-2.4637136,36.834047,1,E-4004 Almería; Spain
10.2260726,53.489276,1,D-21029 Hamburg; Germany
-3.7384311,40.4473608,3,E-28040 Madrid; Spain
116.4110862,39.9942844,8,Beijing 100101; People's Republic of China
135.7836835,35.030518,26,Kyoto 606-8502; Japan
-79.49499449999999,43.7728399,3,ON M3J 1P3; Canada
-1.2595051,51.75972160000001,28,OX1 3RH; UK
9.0615313,48.53924809999999,6,D-72076 Tübingen; Germany
139.53767,35.675447,2,National Astronomical Observatory of Japan; Japan
35.21371,31.768319,4,Jerusalem 91904; Israel
-43.4193812,-22.8098254,1,Nilópolis—RJ; Brazil
-76.8524228,38.9917856,1,NASA Goddard Space Flight Center; USA
-79.1880063,43.781841,2,Ontario M1C 1A4; Canada
-122.169719,37.4274745,1,Stanford University; USA
-80.4326521,25.9839048,1,Miramar; FL 33029
-105.1317431,39.854992,1,Arvada; CO 80005
-1.7075198,48.11734209999999,1,F-35000; France
-82.7342919,35.2334472,1,Brevard; NC 28712
-82.8212432,35.143721,1,Rosman; NC 28772
5.1962097,51.2213789,1,Mol 2400; Belgium
18.4721169,-33.9375585,1,Cape 7935; South Africa
10.4016888,43.7228386,8,Pisa; Italy
140.8444279,38.2553603,7,Miyagi 980-8578; Japan
-0.527552,44.8305549,3,F-33271 Floirac Cedex; France
-0.0405323,51.52341029999999,18,London E1 4NS; UK
-70.6692655,-33.4488897,6,7591245 Santiago; Chile
-5.8493887,43.3619145,6,Oviedo; Spain
6.1657813,46.2876938,63,1290 Versoix; Switzerland
-17.9057813,28.7133828,6,La Palma; Spain
-3.6861518,40.4411076,1,Consejo Superior de Investigaciones Científicas; Spain
-122.0525,37.41752,78,94035; USA
-110.8850949,32.2107257,1,85711; USA
20.1476209,46.2473322,3,University of Szeged; Hungary
14.7734546,49.930923,1,251 65 Ondřejov; Czech Republic
-17.7724671,28.6412969,1,38712 -- Breña Baja; Spain
1.39592,48.489577,3,Bailleau l'Evéque; France
11.2580472,43.7437096,6,50125 Firenze; Italy
11.7158452,50.9910636,5,Tautenberg; Germany
-83.01733860000002,39.9990626,11,43210; USA
5.7165413,45.18942980000001,6,38000 Grenoble; France
6.1425548,46.28896599999999,24,1290 Sauverny; Switzerland
172.6362254,-43.5320544,2,Christchurch 8020; New Zealand
127.5183,37.41379999999999,2,Kyeonggi 17104; Republic of Korea
127.3845475,36.3504119,8,Daejeon 34113; Republic of Korea
127.4890319,36.6424341,1,Cheongju 28644; Republic of Korea
-119.4179324,36.778261,4,CA 9112; USA
6.1425548,46.28896599999999,17,CH-1290; Switzerland
9.1629372,39.2596768,1,Selargius; Italy
-77.8599084,40.7982133,3,The Pennsylvania State University; USA
-80.621591,28.0600145,13,FL 32901; USA
-101.8820434,33.5886439,2,TX 79409; USA
-118.4440562,34.070264,37,CA 90095; USA
-79.9594886,39.654181,1,WV 26506; USA
-71.82717389999999,45.3667531,4,J1M 1Z7; Canada
-71.3824374,42.4072107,25,MA; USA
-77.623931,43.1318593,13,NY 14627; USA
7.5723451,47.5233885,2,Bottmingen; Switzerland
10.845346,51.0109892,1,Thuringia; Germany
13.7372621,51.0504088,1,Dresden; Germany
-75.75023139999999,39.6673566,3,19716; USA
12.7152505,41.8181871,5,Monteporzio Catone (RM); Italy
4.9035614,52.3679843,1,NL-1090-GE Amsterdam; The Netherlands
2.1131154,41.39438190000001,3,E-08034 Barcelona; Spain
2.1757278,41.3919671,1,E-08010 Barcelona; Spain
116.4541469,40.0192499,1,Beijing 100012; People's Republic of China
77.62210910000002,12.9261382,5,Bangalore 560034; India
116.4073963,39.90419989999999,4,Beijing; People's Republic of China
51.3889736,35.6891975,2,Tehran; Iran
116.3700369,39.9586545,2,Beijng 100875; China
116.3160767,39.9912326,22,Beijing 100871; China
34.8056661,32.1166516,7,Tel-Aviv 6997801; Israel
-97.4421919,35.1879507,21,OK 73019; USA
15.4828065,47.0505635,15,A-8042 Graz; Austria
4.3559193,50.7904904,18,B-1180 Brussels; Belgium
-83.6694169,42.3053253,1,MI 48109-1107; USA
5.865272,51.81670099999999,5,NL-6500 GL Nijmegen; The Netherlands
4.9571436,52.3563015,2,NL-1098 XH Amsterdam; The Netherlands
6.394826699999999,52.8171068,1,NL-7991 PD Dwingeloo; The Netherlands
-86.1349019,40.2671941,4,IN 47405-7105; USA
12.5727765,55.7085326,16,DK-2100 Copenhagen; Denmark
-1.519693,52.406822,15,Coventry; UK
2.331433,48.791855,1,Cachan; France
5.715193999999999,43.910292,17,Saint Michel l'Observatoire; France
106.6720665,26.4292188,3,Guiyang 550025; PR China
-86.1700894,39.82060620000001,1,IN 46208; USA
100.1553741,25.6937961,1,Dali 671003; China
118.8358868,32.0891328,3,Nanjing 210042; PR China
116.4541469,40.0192499,1,Beijing 100012; PR China
30.6545022,-0.6071596,2,Mbarara; Uganda
27.0931653,-26.690468,1,North-West University; South Africa
30.907304,3.0303299,1,P.O. Box 725; Arua-Uganda
-74.0059728,40.7127753,1,New York NY; USA
16.3738189,48.2081743,11,Wien; Austria
15.9819189,45.8150108,3,Zagreb; Croatia
3.8712327,43.6328862,1,Montpellier cedex 5; France
92.8932476,56.01528339999999,2,Krasnoyarsk; Russian Federation
-82.4563199,27.926156,1,33606; USA
13.6986639,42.6611431,2,64100 Teramo; Italy
13.6986639,42.6611431,3,Teramo; Italy
-119.8696691,34.4301656,80,CA 93117; USA
-1.1829186,51.796528,8,Oxford OX3 9UU; UK
11.8704306,45.4003087,18,Padova I-35122; Italy
6.150582099999999,46.2904576,1,Observatoire Astronomique de l'Université de Genève; Switzerland
-118.6848112,34.1307949,1,CA 91302; USA
78.5431066,17.4176446,4,Hyderabad 500007; India
127.3845475,36.3504119,1,Daejeon 34055; Republic of Korea
-105.248737,39.9799992,1,CO 80305; USA
-121.9302449,37.2260616,1,CA 95032; USA
-3.533899,50.718412,2,Exeter; UK
-95.712891,37.09024,1,NASA Nexus for Exoplanet System Science; USA
-73.087749,41.6032207,6,CT 065208101; USA
-97.11640129999999,32.7307465,6,TX 76019; USA
-110.9501094,32.2318851,2,Earths in Other Solar Systems Team; NASA Nexus for Exoplanet System Science
54.3773438,24.453884,20,Abu Dhabi; UAE
72.8197581,18.9103689,2,400005; India
-73.9976946,40.7250632,1,NY 10012; USA
-76.9425543,38.9869183,4,University of Maryland College Park; USA
-122.0751549,37.386812,1,CA 94041; USA
-110.8850949,32.2107257,1,AZ 85711; USA
-95.09110620000001,29.5642078,2,TX 77058; USA
-90.3418927,38.9610901,2,IL 62028; USA
-111.7614661,35.3605853,49,AZ 86001; USA
-118.4046264,33.9150066,5,CA 90245; USA
-111.6502622,40.2524308,5,UT 84602; USA
-117.072053,32.7759882,16,CA 92182-1221; USA
77.2090212,28.6139391,1,New Delhi; India
77.19158399999999,28.6785828,5,Delhi 110007; India
79.4647633,29.3764941,2,Nainital-263002; India
9.2273552,45.5000627,2,I-20127 Bologna; Italy
15.4597886,47.03382389999999,1,A-8041 Graz; Austria
7.769664400000001,45.0445643,1,10025-Turin; Italy
18.4721169,-33.9375585,11,Observatory 7935; South Africa
116.3700369,39.9586545,9,Beijing 100875; P. R. China
116.4541469,40.0192499,14,Beijing 100012; P. R. China
116.3160767,39.9912326,9,Beijing 100871; P. R. China
146.921099,-31.2532183,5,NSW; Australia
115.9645378,-32.0121014,1,WA 6107; Australia
37.3454651,55.8065438,1,Moscow 143401; Russia
2.0910377,41.49733519999999,1,E-08193 Cerdanyola del Valles; Spain
13.6986639,42.6611431,12,I-64100 Teramo; Italy
-2.9698078,53.4054599,10,Liverpool L3 5RF; UK
-1.259116,51.7595933,3,Oxford OX1 3NP; UK
-95.712891,37.09024,13,IN; USA
146.921099,-31.2532183,1,New South Wales; Australia
-114.7420408,44.0682019,5,Idaho 83844-0903; USA
-73.5491361,52.9399159,1,Quebec; Canada
27.142826,38.423734,21,İzmir; Turkey
102.742114,25.040516,3,650216; PR China
114.5249197,36.59258270000001,1,056005; PR China
116.4541469,40.0192499,1,100012; PR China
104.7785802,29.33909179999999,1,643000; PR China
20.2822798,49.16449919999999,1,Tatranská Lomnica; Slovakia
-17.7724671,28.6412969,21,E-38712 Breña Baja; Spain
13.393389,38.0824516,10,I-90124 Palermo; Italy
9.1314338,39.2819578,1,Via della Scienza 5—I-09047 Selargius (CA); Italy
-74.4056612,40.0583238,4,NJ; USA
-111.0937311,34.0489281,9,AZ; USA
133.5823171,34.564242,27,Okayama 719-0232; Japan
11.3426162,44.494887,7,Bologna; Italy
115.8604572,-31.9505269,4,Perth; Australia
19.040235,47.497912,3,1451 Budapest; Hungary
-155.2382164,19.7031566,16,HI 96720; USA
-92.73816719999999,41.7679201,4,IA 50112; USA
-97.286868,31.5348439,1,TX 76712; USA
-157.8152491,21.3175493,1,Hi 96822; USA
-123.2611098,49.2684344,13,BC V6T 1Z1; Canada
54.433868,24.5231545,1,P.O. Box 129188 Abu Dhabi; UAE
174.776236,-41.2864603,8,Wellington; New Zealand
35.243322,38.963745,1,TR; Turkey
-111.0937311,39.3209801,4,UT; USA
-91.96233269999999,30.9842977,3,LA 70803-4001; USA
-1.1238104,52.62191929999999,7,LE1 7RH; UK
19.8968991,50.0790939,7,PL-30-084 Kraków; Poland
-70.5058683,-33.3749808,1,7591538 Santiago; Chile
-119.7289889,34.4402467,3,CA 93105; USA
-77.3209555,38.8454321,2,22030 Virginia; USA
-97.54638849999999,31.6559422,3,76689 TX; USA
-122.2143323,37.8015517,5,CA 94602; USA
-119.4179324,36.778261,2,CA 90095-1562; USA
-110.1640846,31.5091589,4,AZ 85650; USA
-97.4408397,31.1990792,1,TX 76504; USA
18.4721169,-33.9375585,2,Cape Town 7935; South Africa
18.9930926,69.6857553,1,Tromsø 9019; Norway
-8.6393579,41.1502012,14,P-4150-762 Porto; Portugal
-71.1032591,42.36475590000001,1,MA 02139;USA
133.5823171,34.564242,2,719-0232 Okayama; Japan
4.483884,52.1548526,1,NL-2333CA Leiden; The Netherlands
32.8546629,39.90785109999999,4,Tandoğan 06100 Ankara; Turkey
28.9783589,41.0082376,1,Istanbul; Turkey
1.4531355,43.5611027,1,F-31400; France
-75.7544793,41.5570649,1,18440; USA
46.2738013,38.096239,2,Tabriz; Iran
102.7186974,25.0266547,2,Kunming 650011; China
18.4691492,-33.9353255,1,Cape Town 7925; South Africa
-6.26308,53.34278399999999,6,Dublin 2; Ireland
4.3517211,50.8503463,16,Brussel; Belgium
4.3517211,50.8503463,7,Brussels; Belgium
-91.17999999999999,30.41,1,70803; USA
-111.9311939,33.4183159,5,AZ 85287; USA
-156.3200234,20.8525374,2,HI 96768; USA
-79.1880063,43.781841,6,ON M1C 1A4; Canada
-118.1528623,34.1561783,2,CA 91109-8099; USA
-78.6568942,37.4315734,1,VA 22903-2475; USA
-118.1268976,34.1456654,1,Pasadena; CA 91106 USA
-76.71200639999999,39.2546062,7,MD 21250; USA
-87.62357420000001,41.8703314,35,IL 60605; USA
-2.2336761,53.4667506,1,M13 9PL; UK
151.2015489,-33.88254620000001,1,c/o Australian Broadcasting Corporation; Australia
-122.3084023,47.6508882,9,WA 98195-1580; USA
-111.9484298,41.1952366,1,UT 84408-2508; USA
-2.7967214,56.3397753,4,St Andrews KY16922; UK
-117.2340135,32.8800604,6,CA 92093-0424; USA
-71.542969,-35.675147,1,0000-0001-7124-4094; Chile
-43.1728965,-22.9068467,3,RJ; Brazil
-75.632447,38.4001474,1,MD 21801-6860; USA
-105.8231588,32.7425859,14,NM 88349; USA
-88.79570799999999,33.45622,5,MS 39762; USA
116.2228228,39.91157339999999,6,100049; People's Republic of China
87.5675825,43.8661526,4,Xinjiang 830011; People's Republic of China
118.7852346,32.0593072,6,Nanjing 210008; People's Republic of China
122.0457994,37.5142399,3,Weihai 264209; People's Republic of China
144.7851531,-37.4713077,6,Victoria; Australia
151.1126498,-33.77382370000001,7,NSW 2109; Australia
149.0525253,-35.3410156,2,Weston Creek; ACT 2611 Australia
121.5654177,25.0329694,8,Taipei 10617; Taiwan
26.9361286,43.2712398,6,Shumen; Bulgaria
102.742114,25.040516,1,Kunming 650216; People's Republic of China
-91.17999999999999,30.41,10,LA 70803; USA
-77.81707209999999,40.8093423,1,PA 16851; USA
-98.2062727,19.0414398,4,Puebla; México
7.427328599999999,46.9588575,2,3012 Bern; Switzerland
-9.1384131,38.7353493,2,1049-001 Lisboa; Portugal
-95.4306141,29.7183467,2,TX 77005; USA
7.57879,47.52087239999999,1,CH-4103 Bottmingen; Switzerland
34.3233527,61.819856,1,185031 Petrozavodsk; Russia
148.7831534,-35.4477412,3,2611; Australia
11.6219985,50.9959499,1,D-07778; Germany
116.3700369,39.9586545,1,Beijing 100875; People's Republic of China
118.8358868,32.0891328,3,Nanjing 210042; People's Republic of China
11.1814209,50.369682,3,D-96515 Sonneberg; Germany
19.0575622,47.4598745,6,H-1117 Budapest; Hungary
16.6030556,47.2577607,1,Szent Imre herceg útja 112; Hungary
26.9088394,43.2496347,26,9700 Shumen; Bulgaria
23.3881151,42.6492038,3,72 Tsarigradsko shossee; 1784 Sofia
-98.4831622,29.4618444,1,TX 78212-7200; USA
-73.96243270000001,40.8138912,4,New York 10027; USA
-122.272747,37.8715926,1,Berkeley 94270; USA
-72.65313139999999,41.558762,3,Middletown 06459; USA
17.6263677,59.8489749,1,E-752 36 Uppsala; Sweden
-71.0898892,42.339904,1,MA 02115; USA
-93.2885455,44.9061358,1,MN 55419; USA
13.339803,52.45552929999999,6,D-12169 Berlin; Germany
15.5858914,49.6652737,4,CZ-611 37 Brno; Czech Republic
-111.6862411,33.3410342,2,Private Address; USA
-71.13891009999999,42.3803274,77,Massachusetts 02138; USA
-79.01929969999999,35.7595731,3,NC; USA
-87.6462963,41.9558821,1,United States Virgin Islands; USA
-77.03165779999999,38.9949446,32,HI; USA
-79.4215085,43.82781689999999,2,Ontario L3T 3R1; Canada
-122.0581762,36.9923139,1,95064; USA
-84.3883717,33.755711,1,30303; USA
-86.80696979999999,36.1718363,23,TN 37208; USA
-75.1953934,39.9583587,7,PA 19104; USA
-93.1378173,44.4695372,1,MN 55057; USA
127.3845475,36.3504119,6,Daejon 34055; Korea
174.7633315,-36.8484597,4,Auckland 0745; New Zealand
120.0862416,30.3087855,2,310058; China
11.6532477,48.2488721,6,D-85748 Garching bei München; Germany
12.5769626,55.6876505,3,DK-1350—Copenhagen K; Denmark
127.5183,37.41379999999999,2,Kyeonggi 17104; Korea
14.7965608,40.7731935,3,I-84084 Fisciano (SA); Italy
136.9624604,35.15461070000001,24,Nagoya 464-8601; Japan
174.7633315,-36.8484597,32,Auckland; New Zealand
135.4533378,34.8032044,30,Osaka 560-0043; Japan
138.1947709,36.6485829,5,Nagano 381-8550; Japan
139.8095201,35.734581,5,Tokyo 116-8523; Japan
139.3953777,35.5583411,4,Kanagawa 252-5210; Japan
170.4771212,-44.0046736,4,Lake Tekapo 8770; New Zealand
135.7584211,35.0702856,4,603-8555 Kyoto; Japan
116.3288577,40.0006896,2,Beijing 100084; China
8.6844799,49.4135138,13,D-69120 Heidelberg; Germany
2.3255684,48.8314408,15,F-75014 Paris; France
34.78176759999999,32.0852999,41,Tel Aviv 69978; Israel
-0.7097473999999999,52.0249136,5,MK7 6AA; UK
-3.0184011,53.3990743,3,Liverpool CH41 1LD; UK
9.9819779,53.5688101,1,20146 Hamburg; Germany
18.0685808,59.32932349999999,4,SE-106 91 Stockholm; Sweden
51.44106980000001,35.6919109,1,PO Box 11155-9161 Tehran; Iran
51.66798259999999,32.6546275,1,841568311 Isfahan; Iran
-73.57685029999999,45.5035028,1,QC H3A 0G4; Canada
25.4650772,65.0120888,2,Oulu; Finland
18.5700636,-33.9142871,1,Cape; South Africa
-87.6759889,42.0541119,40,IL 60208; USA
-80.1428584,41.6151426,2,PA 16335; USA
-115.1381487,36.1451645,3,NV 89154-4002; USA
-8.594483,41.1491059,3,PT4169-007 Porto; Portugal
-105.24,39.98999999999999,69,CO 80307; USA
-0.1277583,51.5073509,4,London; UK
-73.087749,41.6032207,8,CT; USA
-77.1945247,41.2033216,11,PA; USA
-1.470085,53.38112899999999,3,Sheffield; UK
-73.8279381,42.6907733,4,NY 12222; USA
21.0122287,52.2296756,1,00-478 Warsaw; Poland
-7.981084500000001,31.6294723,2,Marrakesh; Morocco
-71.4418101,42.4836453,2,MA 01720; USA
22.2851138,60.4562974,1,University of Turku; Finland
7.842104299999999,47.9990077,11,Freiburg; Germany
-79.52910399999999,43.648611,3,The Royal Astronomical Society of Canada; Canada
-85.50972259999999,42.9219281,4,MI 49546; USA
-71.13940889999999,42.3875111,26,American Association of Variable Star Observers (AAVSO)
-111.9311939,33.4183159,2,AZ 85287-1404; USA
20.2880776,49.1519604,3,Slovak Academy of Sciences; The Slovak Republic
5.5629338,50.6370205,4,Université de Liège; Belgium
-77.3209555,38.8454321,4,VA 22030; USA
-0.8877756,41.0523775,1,Blesa; Spain
-80.0758425,41.1926318,3,PA 16127; USA
-2.9698078,53.4054599,10,L3 5RF; UK
12.56738,41.87194,1,MPC Code K82; Italy
-106.346771,56.130366,2,Sierra Stars Observatory Network; Canada
-93.32378240000001,44.9191183,1,MN 55410; USA
-119.3714909,34.5125711,4,CA 93023; USA
-5.9844589,37.3890924,2,Sevilla; Spain
-3.74922,40.46366700000001,1,Valdés Observatory-MPC J38; Spain
-6.9706535,38.8794495,1,Badajoz; Spain
0.0953282,52.2145316,11,CB3 0HA; UK
-7.4284755,39.2967086,1,Atalaia Group and CROW Observatory Portalegre; Portugal
-86.9523954,36.1484862,5,TN 37209; USA
11.6532477,48.2488721,12,Garching bei München; Germany
21.824312,39.074208,1,Hellenic Amateur Astronomy Association; Greece
-123.3647699,48.425114,1,V8W 3P2; Canada
-105.6412527,40.0118121,1,CO 80466; USA
-3.435973,55.378051,1,Variable Star Section; UK
12.5727765,55.7085326,2,DK-2100 Copenhagen Ø; Denmark
60.6161195,56.8404249,1,Ural Federal University; Russia
-74.0104223,40.7082913,1,Amateur Astronomer; USA
149.0684588,-31.2749453,1,Siding Spring; Australia
7.752111299999999,48.5734053,5,Strasbourg; France
7.019019999999999,43.57655099999999,1,Le Cannet; France
-93.64803069999999,42.0288663,52,IA 50011; USA
-77.03813389999999,38.9030183,1,Society of Astronomical Sciences; USA
2.0910377,41.49733519999999,2,E-08193 Barcelona; Spain
-8.538611099999999,52.3030556,1,Ballyhoura Observatory; Ireland
-73.163743,44.4959801,1,VT 05439; USA
-3.435973,55.378051,1,BAA Variable Star Section; UK
34.989571,32.7940463,1,Haifa 31905; Israel
-77.86531260000001,40.8147955,1,University Park; PA 16801 USA
-85.0441304,41.35481009999999,1,46706; USA
-119.3947135,37.0795598,1,CA 93602; USA
24.9663157,60.5526492,1,Jokela; Finland
16.6218441,47.2306851,3,Szombathely; Hungary
20.1488574,46.2475713,1,Dom ter 9; Hungary
18.6876019,49.342959,1,Kysuce Observatory; Slovak Republic
4.7002953,50.87795449999999,2,University of Leuven; Belgium
-5.93012,54.59728500000001,5,Belfast; UK
13.34909,52.45863,1,Bundesdeutsche Arbeitsgemeinschaft für veränderliche Sterne; Germany
35.21371,31.768319,1,Jerusalem; Israel
-46.63330939999999,-23.5505199,4,São Paulo; Brazil
14.7734546,49.930923,1,251 65 Ondřejov; The Czech Republic
-115.2837585,30.8406338,10,BC; Mexico
18.4240553,-33.9248685,35,Cape Town; South Africa
-73.96243270000001,40.8138912,2,NY 10027; New York
-0.4431618,39.5037093,1,E-46980 Paterna (València); Spain
-0.4101619,39.5090031,1,E-46100 Burjassot (València); Spain
-0.4643906,39.5424148,2,E-46980 Valencia; Spain
37.6172999,55.755826,1,119991 Moscow; Russia
118.7768169,32.056266,27,Nanjing 210093; China
-111.8419536,40.7652201,2,Salt Lake City; UT 84112
2.180034,48.73668,1,Laboratoire AIM Paris-Saclay; CEA/DRF—CNRS—Université Paris Diderot
-58.44227009999999,-34.5419202,1,Universidad de Buenos Aires; Facultad de Ciencias Exactas y Naturales
-8.638482999999999,41.150667,2,Universidade do Porto; CAUP
-122.3035199,47.65533509999999,1,University of Washington
-79.0469134,35.9049122,1,The University of North Carolina at Chapel Hill
-87.67526699999999,42.0564594,3,Northwestern University
-118.125269,34.1376576,4,California Institute of Technology
-89.4124875,43.076592,1,The University of Wisconsin - Madison
-156.3081217,20.7278194,1,96790; USA
7.769664400000001,45.0445643,1,Pino Torinese (TO); Italy
2.3711687,48.6930111,14,Observatoire; France
0.121817,52.205337,1,HA Cambridge; UK
-73.5491361,52.9399159,4,QC; Canada
-85.323214,51.253775,2,ON; Canada
-105.2077798,40.0005378,3,80303; USA
-77.0622028,38.9656971,5,20015-1305; USA
-118.1386005,34.1427587,6,91101; USA
-74.651754,40.3815302,1,08540; USA
151.9533185,-27.5564884,1,4350; Australia
20.1488574,46.2475713,5,Dóm tér 9.; Hungary
25.1442126,35.3387352,1,Heraklion GR-71003; Greece
77.5945627,12.9715987,2,Bangalore; India
11.925783,57.396182,2,Onsala Space Observatory SE-439 92 Onsala; Sweden
151.9506696,-27.5598212,1,Computational Science and Engineering Research Centre; Toowoomba QLD Australia
127.3845475,36.3504119,1,Daejeon (34113); Korea
127.4890319,36.6424341,1,Cheongju (28644); Korea
118.7852346,32.0593072,11,Nanjing 210008; China
12.5769626,55.6876505,9,DK-1350 Copenhagen K; Denmark
-83.6694169,42.3053253,22,MI 48109; USA
9.189982,45.4642035,7,Milano; Italy
-3.1878622,55.92320110000001,3,Edinburgh EH93HJ; UK
-157.8152491,21.3175493,6,Hawaii 96822; USA
-122.0581762,36.9923139,13,California 95064; USA
10.2027261,56.1460465,4,DK-8000; Denmark
27.2058765,38.4502845,4,35100 Izmir; Turkey
116.4541469,40.0192499,8,100012; China
116.3700369,39.9586545,5,100875; China
113.5853182,22.3509937,1,519082; P. R. China
-97.9157099,29.5068941,1,TX 78155; USA
-51.2176986,-30.0346316,10,RS; Brazil
-57.95356570000001,-34.9204948,6,La Plata; Argentina
14.7734546,49.930923,1,CZ-251 65 Ondr˘ejov; Czech Republic
-122.4863492,37.7181398,20,CA 94132; USA
-106.7455792,32.2777551,15,NM 88003; USA
-83.6375032,41.3780983,3,Bowling Green; OH 43403
-119.8496976,34.4135868,72,CA 93106; USA
0.0902733,52.2071261,1,Cambridge CB3 OHA; UK
5.842828099999999,51.8448837,37,Nijmegen; The Netherlands
-101.8820434,33.5886439,1,Texas 79409-1051; USA
4.4970097,52.1601144,1,Leiden 2300RA; The Netherlands
78.3289668,17.4577604,1,Telangana 500046; India
-95.9345034,41.2565369,1,Omaha; USA
84.87451720000001,45.5895891,3,834000 Karamay; China
104.7785802,29.33909179999999,1,643000 Zigong; China
102.742114,25.040516,1,650216 Kunming; China
115.9645378,-32.0121014,2,Western Australia 6107; Australia
-99.9018131,31.9685988,1,TX 78812; USA
-85.7624992,38.21692609999999,1,KY 40292; USA
-16.3158443,28.4810941,1,Universidad de La Laguna; Spain
18.4721169,-33.9375585,2,7935; South Africa
116.2228228,39.91157339999999,3,Beijing 100049; China
118.8358868,32.0891328,26,Nanjing 210042; China
136.9624604,35.15461070000001,10,Aichi 464-8601; Japan
170.4771212,-44.0046736,1,Lake Tekapo 7945; New Zealand
135.7584211,35.0702856,4,Kyoto 603-8555; Japan
121.5654177,25.0329694,1,Taipei 11529; Taiwan
-1.2595051,51.75972160000001,32,Oxford OX1 3RH; UK
-84.39999999999999,33.75,2,GA 30302-410; USA
-118.0676991,34.2276262,1,CA 91023; USA
-122.4693688,38.2315738,64,CA 95476; USA
10.2027261,56.1460465,3,Aarhus DK-8000; Denmark
16.6218441,47.2306851,2,H-9704 Szombathely; Hungary
-104.6857493,40.4075503,1,Colorado; 80639 USA
-90.32308069999999,38.6682669,4,MO 63130; USA
-70.6692655,-33.4488897,1,36-D Santiago; Chile
-3.5985571,37.1773363,5,E-18071 Granada; Spain
32.8597419,39.9333635,5,Ankara; Turkey
-118.1247032,34.1378866,3,Pasadena; CA 91125
27.2058765,38.4502845,9,35100 İzmir; Turkey
116.4073963,39.90419989999999,18,Beijing; PR China
35.0063209,29.5320522,1,Aqaba; Jordan
4.9035614,52.3679843,16,Amsterdam; The Netherlands
34.78176759999999,32.0852999,20,Tel Aviv; Israel
-79.49499449999999,43.7728399,1,M3J 1P3; Canada
146.921099,-31.2532183,7,NSW 1670; Australia
-0.1334268,51.5247725,1,WC1E6BT London; UK
-71.09416,42.360091,3,MA 02139-4307; USA
-93.5913939,42.0320531,3,IA 50010; USA
34.811272,31.892773,2,Rehovot; Israel
-76.9873477,42.8361156,1,14456; USA
-71.1240559,42.3421605,1,MA 02446; USA
-73.9932872,40.755322,1,NY 10018; USA
-71.3824374,42.4072107,1,MA 02215-1401; USA
16.3191645,48.2358641,2,Vienna A-1180; Austria
4.7002953,50.87795449999999,1,KU Leuven; Belgium
0.1149085,52.2042666,1,Cambridge University; UK
-46.63330939999999,-23.5505199,5,Sao Paulo; Brazil
139.2724331,35.3608365,1,Kanagawa 259-1292; Japan
-1.2598873,51.7602725,4,Oxford OX1 3PJ; UK
-72.2889045,43.70195830000001,5,NH 03755; USA
-1.5614704,52.3792525,1,University of Warwick
-8.6537539,40.6405055,3,Aveiro; Portugal
-72.9310217,41.3064267,9,06520-8101; USA
-105.2077798,40.04065060000001,20,80301; USA
-72.9283391,41.3212912,4,06511; USA
-97.73488049999999,30.2835151,4,TX 78712-1205; USA
-74.651754,40.3815302,3,Princeton; NJ 08540 USA
19.0575622,47.4598745,4,1117 Budapest; Hungary
-111.653403,35.19054029999999,2,AZ 86011; USA
11.6532477,48.2488721,8,Garching; Germany
-77.0368707,38.9071923,2,DC; USA
11.2558136,43.7695604,1,Florence; Italy
-17.7645747,28.6839885,17,Santa Cruz de La Palma; Spain
-99.9018131,31.9685988,1,TX 8712; USA
139.6838097,35.6044614,1,Tokio 152-8551; Japan
139.6917064,35.6894875,1,Tokyo 181─8588; Japan
-105.8700901,34.5199402,1,NM; USA
-122.3674079,47.6384586,2,WA 98119; USA
-76.2015572,42.5890797,1,NY 13045-0900; USA
-105.5855777,41.3125068,5,WY 82071; USA
18.9642551,47.5000761,1,Konkoly Thege M. ut 15-17; Hungary
7.268990499999999,43.7164834,1,Laboratoire Lagrange; France
28.2292712,-25.7478676,1,Pretoria; South Africa
23.3877614,42.65626049999999,3,1784; Bulgaria
27.142826,38.423734,6,Izmir; Turkey
-77.623931,43.1318593,2,Rochester NY 14627; USA
6.5514802,51.4479279,6,D-47506 Neukirchen-Vluyn; Germany
-77.6421577,43.0915814,1,NY 14623-5603; USA
7.261953200000001,43.7101728,4,F-06304 Nice Cedex 4; France
13.1910073,55.7046601,6,SE-22100 Lund; Sweden
2.189617,48.697161,1,Bâtiment 121; F-91405 Orsay France
37.6172999,55.755826,1,Moscow 117997; Russia
0.1011321,52.2103371,7,Cambridge CB3 0WA; UK
13.7763553,45.64757729999999,3,I-34131 Trieste; Italy
10.4312272,43.7067974,1,I-56124 Pisa; Italy
17.5833218,48.3709108,2,917 24 Trnava; Slovakia
16.8791369,52.39668649999999,3,PL-60-286 Poznań; Poland
-77.1945247,41.2033216,5,PA 19104-2875; USA
106.6296638,10.8230989,1,Ho Chi Minh City; Vietnam
30.3283597,59.75553369999999,3,St. Petersburg 196140; Russia
-105.7820674,39.5500507,3,CO; USA
-0.0405323,51.52341029999999,17,E1 4NS; UK
11.5819805,48.1351253,1,München; Germany
-106.8414374,34.1054432,1,87801; USA
-86.80411509999999,36.1489935,4,37235; USA
35.2414009,31.7945578,1,Hebrew University of Jerusalem; Israel
-83.9843467,34.5287785,1,GA 30597; USA
-77.0368707,38.9071923,2,Washington DC 20392-5420; USA
-87.61970559999999,41.8839927,2,Chicago IL 60601; USA
23.3877614,42.65626049999999,4,1784 Sofia; Bulgaria
21.2610746,48.7163857,2,Košice; Slovakia
20.2822798,49.16449919999999,5,059 60 Tatranská Lomnica; Slovakia
79.4635658,29.3803039,1,Nainital 263001; India
77.62210910000002,12.9261382,1,Bengaluru 560034; India
14.7734546,49.930923,2,25165 Ondřejov; Czech Republic
14.4674187,50.1091754,1,180 00 Praha 8; Czech Republic
-156.3200234,20.8525374,2,Hawaii 96768; USA
5.5628874,50.63507569999999,1,19c B-4000 Liege; Belgium
13.7626267,45.679968,2,I-34136 Trieste; Italy
127.5183,37.41379999999999,2,Gyeonggi; Korea
9.835970099999999,46.8027453,2,Davos Dorf; Switzerland
23.3881151,42.6492038,1,72 Tsarigradsko Chaussee Blvd.; Bulgaria
-75.3353875,40.0468052,5,19085; USA
14.5057515,46.0569465,2,Ljubljana; Slovenia
-157.8152491,21.3175493,16,96822; USA
-155.2382164,19.7031566,2,96720; USA
48.5087209,36.6830045,3,Zanjan; Iran
12.5683372,55.6760968,2,DK-1350—Copenhagen; Denmark
145.9706647,-41.4545196,1,Tasmania 7001; Australia
34.78176759999999,32.0852999,10,Tel-Aviv 69978; Israel
12.5727765,55.7085326,1,DK-2100—Copenhagen Ø; Denmark
14.26812,40.8517983,1,Naples; Italy
51.53103979999999,25.2854473,9,Doha; Qatar
-87.67526699999999,42.0564594,4,Center for Interdisciplinary Exploration and Research in Astrophysics (CIERA); USA
149.0123679,-35.4734679,2,ACT; Australia
-0.5599501,51.31475930000001,1,Surrey; UK
0.121817,52.205337,8,Cambridge; UK
-74.0059728,40.7127753,1,New York
5.5796662,50.6325574,3,Liége; Belgium
-16.3159061,28.4874009,7,La Laguna; Spain
-73.087749,41.6032207,1,Connecticut
-1.2577263,51.7520209,3,Oxford; UK
7.280806999999999,43.704712,3,Nice cedex 4; France
12.4963655,41.9027835,8,Roma; Italy
-0.3367413,53.7456709,1,Hull; UK
17.6389267,59.85856380000001,6,Uppsala; Sweden
-122.0838511,37.3860517,1,Mountain View; California
-93.63191309999999,42.0307812,1,Ames; Iowa
-2.70309,53.763201,3,Preston; UK
6.024053899999999,47.237829,3,Besançon Cedex; France
-78.47667810000002,38.0293059,1,Charlottesville; Virginia
-2.9915726,53.4083714,3,Liverpool; UK
-105.2705456,40.0149856,1,Boulder; Colorado
-82.99879419999999,39.9611755,1,Columbus; Ohio
3.876716,43.610769,2,Montpellier; France
26.1025384,44.4267674,7,Bucharest; Romania
2.1397612,41.490047,1,Cerdanyola del Valles; Spain
12.7152505,41.8181871,1,MontePorzio Catone (RM); Italy
-39.3206241,-5.4983977,1,Ceará; Brazil
-77.1945247,41.2033216,2,PA 68505-080; Brazil
-106.8414374,34.1054432,2,NM 87801; USA
43.93605900000001,56.2965039,5,Nizhnii Arkhyz; Russia
15.472962,49.81749199999999,1,Ondrěejov; Czech Republic
127.3845475,36.3504119,4,Daejeon; Korea
151.9533185,-27.5564884,3,QLD 4350; Australia
-95.89812549999999,33.2501869,3,TX 75429; USA
-119.4179324,36.778261,4,CA 94095; USA
5.842828099999999,51.8448837,1,Nijmegen; the Netherlands
20.8537466,39.66502880000001,1,Ioannina; Greece
133.9195019,34.6551456,3,Okayama; Japan
18.5984437,53.0137902,3,Toruń; Poland
-95.712891,37.09024,1,94095; USA
-122.4693688,38.2315738,2,95476; USA
-86.9523954,36.1484862,1,37209; USA
-111.0451818,45.6603986,3,59717-3840; USA
7.261953200000001,43.7101728,14,Nice; France
12.5683372,55.6760968,2,Copenhagen Ø; Denmark
-64.1887761,-31.42008329999999,3,Córdoba; Argentina
-85.60236429999999,44.3148443,1,MI; USA
-83.01733860000002,39.9990626,1,Columbus; OH 43210 USA
103.819836,1.352083,4,Singapore; Singapore
-70.9279301,42.4272831,1,MA 01908; USA
21.0722665,52.212944,2,PL-00716 Warsaw; Poland
19.8254293,50.0424424,1,PL-30244 Cracow; Poland
14.544733,53.43595879999999,1,PL-70451 Szczecin; Poland
18.5984437,53.0137902,1,PL-87100 Toruń; Poland
11.3944254,44.5184235,4,I-40127 Bologna; Italy
-79.01929969999999,35.7595731,3,NC - 27599-3255; USA
-72.65313139999999,41.558762,1,CT - 06459; USA
-122.3084023,47.6508882,3,Washington 98195; USA.
7.427328599999999,46.9588575,2,CH-3012 Bern; Switzerland.
-87.603826,41.7805099,1,Illinois 60637; USA.
5.5628874,50.63507569999999,5,B-4000 Liège; Belgium.
-117.2338066,32.88435520000001,1,California 92093; USA.
-82.5889012,28.0003221,2,33615 Pessac; France.
0.0953282,52.2145316,1,Cambridge CB3 0HA; UK.
-122.6420207,38.235501,1,California 94952; USA.
-122.0723816,37.428434,1,California 94043; USA.
0.0927876,52.2090647,1,Cambridge CB3 0HE; UK.
-95.09110620000001,29.5642078,1,Texas 77058; USA.
39.8218953,21.4239823,1,Mecca 24231; Saudia Arabia.
6.159288999999999,46.28916299999999,1,CH-1290 Sauverny; Switzerland.
-110.9488008,32.2332841,1,Arizona 85721; USA.
134.3402108,35.0347366,6,Hyogo 679-5313; Japan
135.7935777,34.9927429,17,Kyoto 607-8471; Japan
102.742114,25.040516,4,Kunming 650216; China
114.5249197,36.59258270000001,1,Handan 056005; China
104.7785802,29.33909179999999,1,Zigong 643000; China
7.280806999999999,43.704712,18,Nice Cedex 4; France
-105.24,39.98999999999999,8,80307; USA
72.8776559,19.0759837,7,Mumbai; India
-105.8231588,32.7425859,3,88349; USA
-122.0723816,37.428434,7,94043; USA
-79.3981142,43.6608838,1,M5S 1A7; Canada
127.3845475,36.3504119,5,Daejeon 34055; Korea
-86.7816016,36.1626638,1,Nashville; Tennessee
149.059,-35.338,1,Weston; Australia
135.1830706,34.6912688,2,Hyogo; Japan
37.6272049,55.735781,1,Institute of Astronomy; Russian Academy of Sciences
37.54274059999999,55.7009893,1,Sternberg Astronomical Institute; Lomonosov Moscow State University
-85.50972259999999,42.9219281,8,49546; USA
-105.4536718,41.3844415,2,WY 82072; USA
-1.0879769,50.8197675,1,Portsmouth; UK
2.0910377,41.49733519999999,2,E-08193; Spain
-73.0443904,-36.8201352,1,Concepción; Chile
-51.92528,-14.235004,1,Observatório Nacional-MCTI; Brazil
-105.2889726,40.0103247,9,CO 80309; USA
-122.7982856,47.01809919999999,1,WA 98503; USA
-0.4207069,51.1719559,2,RH5 6NT; UK
7.7835217,48.6019858,7,F-67000 Strasbourg; France
-0.3671649,53.76964,2,HU6 7RX; UK
6.5665017,53.2193835,3,9700 AV Groningen; The Netherlands
11.50962,45.8758852,2,Asiago (VI); Italy
146.921099,-31.2532183,2,NSW 1797; Australia
116.2228228,39.91157339999999,2,100049; P.R. China
-73.5436479,45.50232,2,Montréal QC H3C 3J7; CAN
-73.90232,42.0249933,3,NY 12504; USA
-1.9308602,52.44897169999999,1,Birmingham B15 2TT; United Kingdom
5.566320999999999,50.5832954,1,B-4000 Liège 1 (Sart-Tilman); Belgium
18.4721169,-33.9375585,1,Observatory Cape 2735; South Africa
116.2228228,39.91157339999999,3,100049 Beijing; China
-95.712891,37.09024,3,USA
19.5033041,47.162494,5,Kt. 766; Hungary
-74.0059728,40.7127753,1,New York; NY
-122.2594606,37.87015100000001,4,94720-3411; USA
-122.1686966,47.54119679999999,1,12812 SE 69th Place Bellevue; WA 98006
-122.128261,48.0430533,1,7507 52nd Place NE Marysville; WA 98270
19.0617287,47.4745763,2,Pázmány Péter stny. 1/A; Hungary
-71.82717389999999,45.3667531,1,Sherbrooke; QC J1M 1Z7
-87.92,43.03,1,WI 53201; USA
146.921099,-31.2532183,9,NSW 1710; Australia
-1.1065548,40.3456686,1,Teruel; Spain
-123.3127957,48.4646474,1,V8P 5C2; Canada
114.109497,22.396428,1,Hong Kong; PR China
151.1126498,-33.77382370000001,1,2109; Australia
133.775136,-25.274398,1,1670; Australia
-76.6008334,39.3322127,4,21218; USA
-43.1728965,-22.9068467,10,Rio de Janeiro; Brazil
-51.2176584,-30.0346471,3,Porto Alegre; Brazil
-86.1242881,41.74520709999999,2,46530; USA
-106.7455792,32.2777551,3,88003; USA
-78.510016,38.0340277,3,22904-4325; USA
5.5587227,50.5857207,1,Liège 1 (Sart-Tilman); Belgium
-77.8638835,40.8084075,15,16802; USA
20.2822798,49.16449919999999,2,Tatranská Lomnica; Slovak Republic
-73.5436479,45.50232,6,H3C 3J7; Canada
-77.0226217,38.8951382,2,DC 20004; USA
2.189617,48.697161,14,F-91405 Orsay Cedex; France
-122.0568004,37.41333729999999,1,Moffett Field; CA 94035 USA
-0.2421732,51.7528765,10,Hatfield AL10 9AB; UK
-111.6630914,35.0832326,1,AZ 86005-8521; USA
-3.952696,40.444211,1,ESAC campus E-28691 Villanueva de la Cañada (Madrid); Spain
-72.9283391,41.3212912,10,New Haven; CT 06511 USA
139.6917064,35.6894875,1,Tokyo 192-4397; Japan
-1.486084,53.3809845,1,S3 7RH; UK
-86.5804473,35.5174913,2,TN; USA
-97.73488049999999,30.2835151,4,Austin TX 78712; USA
-123.4215979,48.58457500000001,1,V8M 1R3; Canada
-105.8231588,32.7425859,1,New Mexico 88349; USA
19.8968991,50.0790939,2,PL-30-084 Krakow; Poland
19.8254293,50.0424424,2,PL-30-244 Krakow; Poland
24.8284311,60.186255,1,FI-00076 Aalto; Finland
24.9383791,60.16985569999999,1,FI-00014 Helsinki; Finland
-121.6739371,37.6536947,8,CA 94550; USA
139.6838097,35.6044614,3,Tokyo 152- 8551; Japan
2.0864011,41.5037176,6,08193 Bellaterra; Spain
4.4564808,52.16850770000001,1,2333CA Leiden; Netherlands
116.3700369,39.9586545,54,Beijing 100875; China
27.2289375,38.45586369999999,1,University of Ege; Turkey
6.114234,46.315994,7,Sauverny; Suisse
6.024053899999999,47.237829,2,Besançon; France
-2.0571868,52.8792745,1,Staffordshire; UK
139.9758505,35.8676124,1,Kashiwa; Japan
-93.2342,44.97415609999999,4,MN 55455; USA
15.0586639,37.5267674,1,78-95123 Catania; Italy
-74.6568772,40.3467174,6,Princeton; NJ 08544 USA
-79.0581498,35.905249,2,27599; USA
44.272133,40.3373909,3,Byurakan; Armenia
72.9288426,19.0482616,9,Mumbai 400088; India
72.8197581,18.9103689,11,Mumbai 400005; India
26.4639166,58.2628346,2,61602 Tõravere; Estonia
30.329541,59.76743099999999,3,Pulkovskoye shosse 65; Russia
37.5323004,55.7042667,1,Moscow 119234; Russia
37.6238713,55.7381289,1,Moscow 119017; Russia
27.953389,53.709807,1,220023; Belarus
102.7186974,25.0266547,2,650011; China
77.3910265,28.5355161,2,Noida; India
76.71787259999999,30.7046486,1,Mohali; India
-2.8074837,56.3401503,20,Fife KY16 9SS; UK
-0.7097473999999999,52.0249136,13,Milton Keynes MK7 6AA; UK
-96.01895999999999,41.2453849,1,NE 68182; USA
5.117064699999999,51.191087,1,Mol; Belgium
6.159288999999999,46.28916299999999,9,CH-1290 Sauverny; Switzerland
-105.2077798,40.04065060000001,6,Colorado 80301; USA
9.9484313,51.55995069999999,1,Institute for Astrophysics Göttingen; Germany
17.0385376,51.1078852,20,Wrocław; Poland
13.003822,55.604981,3,Malmö; Sweden
-93.64803069999999,42.0288663,4,50011; USA
-78.9853813,36.025609,1,NC 27705; USA
-77.9510209,40.5087323,1,PA 16652; USA
-82.9000751,32.1656221,6,GA; USA
-3.9975566,40.4481075,1,Villanueva de la Cañada (Madrid); Spain
7.261953200000001,43.7101728,4,F-06304 Nice cedex 4; France
-0.3671649,53.76964,1,Hull HU6 7RX; UK
-0.4207069,51.1719559,1,Dorking RH5 6NT; UK
114.109497,22.396428,1,Hong Kong; China
11.6532477,48.2488721,1,D-85748 Garching b. Muenchen; Germany
-116.20715,43.6054854,1,ID 83725; USA
-116.20715,43.6054854,1,ID 83725-1570; USA
-110.9488008,32.2332841,1,Tucson; AZ 85721-0092
7.060132899999999,50.73363089999999,1,53121 Bonn; Germany
-122.0525,37.41752,58,California 94035; USA
-122.2594606,37.87015100000001,19,California 94720; USA
-1.090541,48.008695,4,F-35042 Rennes; France
-71.128166,42.3814605,5,60 Garden Street Cambridge; MA 02138 USA
-1.9308602,52.44897169999999,6,Birmingham; B15 2TT UK
-104.0248334,30.6798048,1,McDonald Observatory; USA
-77.0622028,38.9656971,1,Washington; DC 20015
-99.133208,19.4326077,1,Ciudad de México; México
-75.6091696,41.4367622,3,PA 18512; USA
-35.200916,-5.7792569,15,Natal; Brazil
106.3013634,29.5519859,1,Chongqing 401331; China
116.3094073,37.4911306,2,Dezhou 253023; China
-113.9842701,46.861557,3,MT 59812; USA
-75.737149,40.533145,1,PA 19530; USA
7.4474468,46.9479739,2,CH-3201 Bern; Switzerland
151.229916,-33.916869,2,Sydney 2052; Australia
20.4489216,44.786568,1,11 060 Belgrade; Serbia
21.0722665,52.212944,2,PL- 00-716 Warszawa; Poland
-2.6020736,51.4584697,7,Bristol BS8 1TL; UK
7.427328599999999,46.9588575,4,CH-3012 Bern; Switzerland
-122.3336657,47.6061026,1,WA 98154; USA
139.3770886,35.6171853,4,Tokyo 192-0397; Japan
139.7636194,35.697597,1,Tokyo 101-8308; Japan
-57.926332,-34.9097464,3,CONICET-UNLP; Argentina
5.57132,50.59139,2,Sart-Tilman; Belgium
-83.01733860000002,39.9990626,3,43210-1173; USA
-81.6089873,41.5091257,1,44106; USA
-86.51860219999999,39.1714266,1,47405; USA
-83.7146001,42.2660881,2,48104; USA
-104.0072348,30.7713229,2,79734; USA
-76.6354952,39.3566383,1,21210; USA
19.9449799,50.06465009999999,11,Kraków; Poland
-93.2483058,37.1565149,8,65804; USA
-73.61315359999999,45.5058219,3,Canada; H3T 1J4
6.114234,46.315994,1,1290 Sauverny; Suisse
-3.9975566,40.4481075,6,E-28691 Villanueva de la Cañada; Spain
5.727353,43.906352,5,F-04870 Saint Michel l'Observatoire; France
-8.629105299999999,41.1579438,9,4169-007 Porto; Portugal
-101.2190863,19.6718225,1,C.P. 58089 Michoacán; Mexico
-155.2382164,19.7031566,2,Hawai‘i 96720-2700; USA
12.0991466,54.0924406,1,Rostock; Germany
11.5892372,50.927054,2,Jena; Germany
-71.10973349999999,42.3736158,2,Cambridge; Massachusetts
121.2053963,24.9721514,8,Jhongli 32001; Taiwan
113.563922,22.1596848,1,Taipa; Macau
16.3191645,48.2358641,1,Vienna 1180; Austria
2.213749,46.227638,2,France cedex; France
116.3160767,39.9912326,5,100871; China
19.8186982,41.3275459,2,Tirana; Albania
18.1750161,40.3515155,2,Lecce; Italy
24.7384095,41.6947013,1,Bulgaria and Institute of Astronomy and National Astronomical Observatory; Bulgarian Academy of Sciences
116.682386,40.408141,3,Chinese Academy of Sciences; Beijing 100012
7.427328599999999,46.9588575,2,CH-3012; Switzerland
17.6389267,59.85856380000001,1,SE-751-20 Upsalla; Sweden
139.5364976,35.67533,2,181-8588 Tokyo; Japan
139.6838097,35.6044614,1,152-8551 Tokyo; Japan
16.6030556,47.2577607,28,Szent Imre herceg út 112; Hungary
-38.985274,-12.150325,2,44036-900 Bahia; Brazil
-38.9438699,-12.2329804,1,44051-224 Bahia; Brazil
0.0902733,52.2071261,1,Cambridge CB3 0H4; UK
5.566320999999999,50.5832954,2,B-4000 Liège 1; Belgium
-122.2683743,47.6614244,2,WA 98105; USA
-80.68817179999999,28.0181548,1,FL 32907; USA
-84.39999999999999,33.75,29,GA 30302; USA
114.5181793,38.0092445,1,Shijiazhuang 050024; P. R. China
118.8358868,32.0891328,3,Nanjing 210042; P. R. China
-71.1053991,42.3504997,1,Boston University
-9.1393366,38.7222524,2,1049 Lisboa; Portugal
12.9965755,52.4699198,2,D-14476 Potsdam; Germany
-157.8171118,21.296939,1,University of Hawai'i at Manoa
-77.8599084,40.7982133,3,The Pennsylvania State University
-76.9425543,38.9869183,1,University of Maryland; College Park
-106.7479059,32.2787745,3,New Mexico State University
-79.39565640000001,43.6628917,1,University of Toronto (Canada)
-122.2594606,37.87015100000001,2,Berkeley CA 94720; USA
15.0586639,37.5267674,27,95123 Catania; Italy
-16.3375493,28.4894267,3,38206 La Laguna; Spain
-3.7866915,43.4717283,1,E-39005 Santander; Spain
-17.7902707,28.6303668,3,E-38712 Breña Alta; Spain
11.5819805,48.1351253,7,Munich; Germany
-72.9637728,41.3266814,3,06515; USA
19.8968991,50.0790939,6,30-084 Cracow; Poland
-6.6501787,54.352239,1,Armagh BT61 9DG; United Kingdom
26.4639166,58.2628346,1,61602 Tøravere; Estonia
-105.8700901,34.5199402,18,NM 88003-8001; USA
-79.49499449999999,43.7728399,2,ON M3J1P3; Canada
-79.1880063,43.781841,1,M1C1A4; Canada
-83.06772440000002,40.298702,2,OH 43015; USA
118.7768169,32.056266,8,210093; China
-1.9308602,52.44897169999999,2,Birmingham B152TT; UK
2.189617,48.697161,3,F-91405 Orsay cedex; France
-110.9268201,32.3389931,1,AZ 85718; USA
-105.8700901,34.5199402,14,NM 87545-2345; USA
-118.1528623,34.1561783,1,Pasadena CA 91109; USA
-104.6857493,40.4075503,1,Greeley; CO 80639
-71.13891009999999,42.3803274,5,Cambridge; MA 02138
-95.712891,37.09024,1,Mailcode 350-17; USA
-35.2024819,-5.8486753,6,RN 59078-970; Brazil
-70.6692655,-33.4488897,1,Santiago 78204-36; Chile
11.6532477,48.2488721,1,Garching D-85748; Germany
-46.6651023,-23.5558044,1,SP 01302; Brazil
15.0586639,37.5267674,1,Catania I-95123; Italy
14.7734546,49.930923,3,CZ-25165 Ondřejov; Czech Republic
11.8704306,45.4003087,12,I-35122; Italy
-2.8074837,56.3401503,1,St. Andrews KY 16 9SS; UK
-3.5362552,50.7369834,6,Exeter EX4 4QL; UK
4.4186238,52.214817,3,NL-2201 AZ Noordwijk; the Netherlands
-1.3956847,50.934189,3,Hampshire SO17 1BJ; UK
2.0910377,41.49733519999999,2,s/n E-08193 Cerdanyola del Vallès (Barcelona); Spain
2.1457119,48.7072212,1,F-91191 Gifsur-Yvette Cedex; France
-2.8097493,56.3399474,1,North Haugh KY16 9SS; UK
2.3642198,48.87854189999999,2,F-75000 Paris; France
5.36978,43.296482,14,F-13388 Marseille; France
-99.133208,19.4326077,1,04510; México
3.0175712,39.6952629,1,Mallorca; Spain
-0.7822089999999999,44.811257,2,Saint-Jean d'Illac; France
-85.4136959,40.1984632,3,IN 47306; USA
121.6283098,-27.6728168,1,Western Australia; Australia
-2.8074837,56.3401503,4,St. Andrews KY16 9SS; UK
-0.1382459,51.5296151,1,NW1 2PS; UK
9.9819779,53.5688101,1,D-20146 Hamburg; Germany
14.7278743,40.66794489999999,3,I-84019 Vietri sul Mare (SA); Italy
127.3747104,36.3981875,1,305-348 Daejeon; Korea
51.44106980000001,35.6919109,1,P.O. Box 11155-9161 Tehran; Iran
-105.2077798,40.0005378,2,CO 80303; USA
147.3271949,-42.8821377,1,Private Bag 37 Hobart; Tasmania 7001 Australia
-155.7134009,20.0390812,1,Hawaii 96743; USA
-79.3974105,43.660818,3,M5S 3H4; Canada
2.0910377,41.49733519999999,1,E-08193 Cerdanyola del Vallès; Spain
5.56243,50.6347725,5,Liège 1; Belgium
11.5678602,48.14966,1,Technical University of Munich
-1.2490969,39.2623682,1,Cantoblanco; Spain
20.1488574,46.2475713,2,Dóm tér 9; Hungary
19.5033041,47.162494,4,15-17; Hungary
19.5033041,47.162494,4,112; Hungary
-111.6465141,35.1978563,4,AZ 86002; USA
-2.8074837,56.3401503,1,Fife KY169SS; UK
-83.00122100000002,39.9929821,2,OH 43201; USA
2.3255684,48.8314408,7,75014 Paris; France
173.9612498,-41.5134425,1,Blenheim; New Zealand
-96.33999999999999,30.61,1,TX 77843-4242; USA
34.811272,31.892773,1,76100 Rehovot; Israel
127.4890319,36.6424341,1,Cheongju 361-763; Republic of Korea
21.6779967,-33.5276391,1,Calitzdorp; South Africa
34.8046285,31.9049905,1,Rehovot 7610001; Israel
172.6362254,-43.5320544,2,8020 Christchurch; New Zealand
145.9706647,-41.4545196,2,7001 Tasmania; Australia
14.4526248,45.3361734,1,51000 Rijeka; Croatia
16.3710632,48.1918841,1,1040 Wien; Austria
12.5727765,55.7085326,2,DK-2100 København Ø; Denmark
115.9083631,-32.0058457,1,WA 6102; Australia
10.2027261,56.1460465,3,DK-8000 Århus C; Denmark
12.583114,55.69452399999999,1,DK-2100 Copenhagen O; Denmark
-122.2570288,37.873113,2,Berkeley CA 94720-3411; USA
-117.072053,32.7759882,2,92182; USA
-124.0874754,40.8805372,1,95521; USA
-123.3647699,48.425114,9,BC V8W 3P6; Canada
-106.31,35.89,5,NM 87545; USA
2.189617,48.697161,3,F-91405 ORSAY Cedex; France
0.078082,43.23295100000001,3,Tarbes; France
-105.8700901,34.5199402,2,NM 88003-4500; USA
-63.5817947,44.6311305,14,NS B3H 3C3; Canada
9.963474999999999,51.56655319999999,1,D-37077 Gttingen; Germany
-46.6651023,-23.5558044,2,SP 01302-907; Brazil
-71.1032591,42.36475590000001,1,Cambridge; MA 02139 USA
2.1457119,48.7072212,40,91191 Gif-sur-Yvette Cedex; France
-105.7820674,39.5500507,1,CO 80307-3000; USA
72.5713621,23.022505,1,Ahmedabad; India
11.3353359,44.4928421,3,Italy; 40123
18.48102,-33.9657883,1,7700; South Africa
-80.7879407,28.1988979,1,FL 32940; USA
26.408587,40.14671999999999,5,Canakkale; Turkey
-104.0072348,30.7713229,6,TX-79734; USA
-1.5616976,52.3800625,6,Coventry-CV4 7AL; UK
-79.0581498,35.905249,1,NC-27599; USA
-97.4421919,35.1879507,1,OK-73019; USA
-82.5889012,28.0003221,1,33615 Pessac; France
0.1149085,52.2042666,2,University of Cambridge; UK
22.5232338,60.42633249999999,5,FI-21500 Piikkiö; Finland
21.0722665,52.212944,8,PL-00-716 Warsaw; Poland
19.0135474,46.18030659999999,1,H-6500 Baja; Hungary
-115.1381487,36.1451645,1,Las Vegas; NV 89154
-115.1431709,36.1085197,1,Las Vegas; NV 89154-4002
-122.060529,37.408881,12,Moffett Field; CA 94035
-83.9843467,34.5287785,1,30597; USA
-71.2519374,-29.9026691,1,LaSerena; Chile
-1.9308602,52.44897169999999,1,B15 2TT; UK.
11.8704306,45.4003087,5,35122 Padova; Italy
-110.9488008,32.2332841,2,Tucson AZ 85721; USA
-117.0718893,32.77572170000001,1,San Diego State University; USA
-1.9305135,52.4508168,1,University of Birmingham; United Kingdom
2.180034,48.73668,1,Paris-Saclay; France
8.6721075,49.4151683,1,Landessternwarte; Universität Heidelberg
-122.0838511,37.3860517,1,Mountain View; CA
-83.01733860000002,39.9990626,1,OH43210; USA
-1.5616976,52.3800625,1,CV47AL; UK
-90.32308069999999,38.6682669,1,St Louis MO 63130; USA
151.20461,-33.89333999999999,1,Redfern; Australia
-0.2467997,51.7617561,1,University of Hertfordshire; UK
5.57132,50.59139,1,B-4000 Sart Tilman; Belgium
85.2799354,23.6101808,4,Jharkhand; India
25.594752,-25.8377623,12,Mmabatho 2735; South Africa
-71.20426189999999,42.50057229999999,3,MA 01803; USA
-76.8632581,38.9916589,3,Maryland 20771; USA
5.5628874,50.63507569999999,14,4000 Liège; Belgium
-76.6008334,39.3322127,9,Maryland 21218; USA
-117.2338066,32.88435520000001,4,California 92093; USA
-95.09110620000001,29.5642078,1,Texas 77058; USA
-123.4208592,48.5167241,3,BC V9E 2E7; Canada
127.766922,35.907757,2,02455; Republic of Korea
-116.20715,43.6054854,1,Boise ID 83725; USA
-83.7382241,42.2780436,2,University of Michigan; USA
-97.73488049999999,30.2835151,10,TX 78712-0259; USA
-7.4284755,39.2967086,2,Portalegre; Portugal
-6.4923145,54.7877149,1,Northern Ireland; UK
-75.347048,39.8975179,1,PA 19081; USA
34.78176759999999,32.0852999,10,69978 Tel Aviv; Israel
9.0615313,48.53924809999999,3,D-72076 Tuebingen; Germany
-83.6694169,42.3053253,1,48109; USA
28.0473051,-26.2041028,1,Johannesburg 2006; South Africa
41.28128969999999,43.5631805,1,Nizhny Arkhyz 369167; Russia
77.62210910000002,12.9261382,2,Karnataka 560034; India
81.62964130000002,21.2513844,1,Raipur 492 010; India
98.93557369999999,18.7952345,1,50200 Chiangmai; Thailand
-123.3229396,48.4464362,3,V8P 5J2; Canada
16.3357663,48.2306254,7,Türkenschanzstrasse 17; Austria
-83.7382241,42.2780436,1,University of Michigan
-0.2467997,51.7617561,1,University of Hertfordshire
-16.3080929,28.4746232,4,IAC; ULL
1.4760586,43.5625154,1,IRAP; OMP
-86.14462069999999,39.7690233,2,OCA
-111.0546211,45.6673524,1,HAO; Montana State University
-71.1281079,42.38144519999999,1,Universidade Federal do Rio Grande do Norte; Harvard-Smithsonian Center for Astrophysics
-95.7068195,37.2461229,1,SSI
-83.114004,42.4026723,1,SSI; NSO
-95.712891,37.09024,1,065208101; USA
-3.9975566,40.4481075,4,Villanueva de la Cañada; Spain
149.118527,-35.2776999,1,Australia National University; Australia
118.8950071,32.1333352,5,210046; China
-122.1178261,37.8929461,1,CA 94549; USA
-122.4000032,37.79593620000001,2,CA 94111-5235; USA
5.5628874,50.63507569999999,1,B-4000 Liege; Belgium
-111.0451818,45.6603986,1,Bozeman MT 59717; USA
-74.6568772,40.3467174,2,Princeton NJ 08544; USA
16.5725395,49.2144656,5,cz616 00 Brno; Czech Republic
-119.6199984,49.3215485,1,Special Astrophysical Observatory of the RAS; Russia
102.832891,24.880095,1,Kunming; China
-123.1207375,49.2827291,2,Vancouver; Canada
101.3431058,24.4752847,1,Yunnan; China
30.3283597,59.75553369999999,3,St Petersburg 196140; Russia
-76.77693239999999,39.1202934,1,MD 20701; USA
17.5833218,48.3709108,2,91724 Trnava; Slovakia
22.937506,-30.559482,1,2735; South Africa
18.4721169,-33.9375585,1,7935 Cape Town; South Africa
-79.0469134,35.9049122,2,Univ. of North Carolina at Chapel Hill (United States)
-74.6514481,40.3439888,1,Princeton Univ. (United States)
-118.125269,34.1376576,1,California Institute of Technology (United States)
135.7808218,35.0262444,10,Kyoto University
134.649279,34.8779,2,University of Hyogo
139.53767,35.675447,2,National Astronomical Observatory of Japan
136.967573,35.153491,2,Nagoya University
61.5670509,54.0747574,1,Troitsk; Russia
30.7233095,46.482526,1,Odessa; Ukraine
6.5537259,51.4423827,1,Neukirchen-Vluyn; Germany
-73.9447994,42.8129576,1,12305; USA
-74.0094471,40.7217861,2,NY 10013; USA
8.5079308,47.4079311,6,CH-8093 Zurich; Switzerland
-77.0622028,38.9656971,4,Washington DC 20015-1305; USA
-3.952696,40.444211,1,ESAC campus E-28692 Villanueva de la Caada (Madrid); Spain
2.213749,46.227638,50,European Pro/Am Network of Exoplanetary Transit Observers; France
14.7278743,40.66794489999999,1,I-84019 Vietri Sul Mare (SA); Italy
-77.0368707,38.9071923,1,DC 20392-5420; USA
-87.61970559999999,41.8839927,1,IL 60601; USA
-122.3320708,47.6062095,5,Seattle; Washington
21.0122287,52.2296756,2,PL-00-478 Warszawa; Poland
8.541694,47.3768866,1,CH-8092 Zuerich; Switzerland
16.356965,48.2248956,1,A-1090 Vienna; Austria
-112.1430215,37.1052853,1,UT 84741; USA
15.4828065,47.0505635,1,8042 Graz; Austria
7.060132899999999,50.73363089999999,3,D-53121 Bonn; Germany
-90.2526163,38.6212468,2,MO 63110; USA
11.7158452,50.9910636,1,Tautenburg D-07778; Germany
-76.38022509999999,37.091168,1,Virginia 23681; USA
-76.8432663,39.166263,1,Maryland 21046; USA
-118.1247032,34.1378866,12,California 91125; USA
-110.9488008,32.2332841,1,Arizona 85721; USA
8.547669899999999,47.376313,1,ETH Zürich
21.0592218,52.2135446,2,00--716 Warszawa; Poland
21.0236424,52.2266584,1,00--478 Warszawa; Poland
-43.1728965,-22.9068467,1,RJ 21941-901; Brazil
-0.527552,44.8305549,28,Floirac; France
-2.6020736,51.4584697,6,BS8 1TL; UK
0.1011321,52.2103371,2,CB3 0WA; UK
11.6532477,48.2488721,3,D-85741 Garching; Germany
10.451526,51.165691,1,IMPRS-HD; Germany
-73.61315359999999,45.5058219,2,QC H3T 1J4; Canada
-1.2543668,51.7548164,1,University of Oxford; UK
34.811272,31.892773,1,Rehovot 76100; Israel
24.9510419,60.1726348,3,FI-00014 University of Helsinki; Finland
7.299095299999999,43.7273864,1,Observatoire de la Côte d'Azur; France
3.0739621,50.6283462,2,Univ Lille; France
-0.2421732,51.7528765,2,Herts AL10 9AB; UK
-155.2382164,19.7031566,3,Hawaii 96720; USA
-87.603826,41.7805099,1,Illinois 60637; USA
18.5984437,53.0137902,1,87-100 Torun; Poland
-77.8638835,40.8084075,4,Pennsylvania 16802; USA
-73.5829689,42.734263,3,NY 12180; USA
-79.3974105,43.660818,6,Ontario M5S 3H4; Canada
23.3218675,42.6977082,3,Sofia; Bulgaria
6.5514802,51.4479279,3,47506 Neukirchen-Vluyn; Germany
0.0927876,52.2090647,1,CB30HE; UK
-80.01436559999999,40.490944,1,PA 15214; USA
-75.3353875,40.0468052,3,Villanova; PA 19085 USA
102.7186974,25.0266547,1,650011 Kunming; China
-3.5985571,37.1773363,7,E-18080 Granada; Spain
8.5079308,47.4079311,1,CH-8093 Zürich; Switzerland
-74.0104223,40.7082913,11,Amateur Astronomer
12.5795433,55.6841989,1,København K; Denmark
-157.8152491,21.3175493,3,Honolulu HI 96822; USA
18.9642969,47.4996973,5,Konkoly Th. M. út 15 -17; Hungary
19.2869196,47.4936236,2,Szent Imre herceg ut 112; Hungary
24.9316109,60.17054729999999,1,FI-00101 Helsinki; Finland
-122.3985871,37.7618242,1,CA 94107; USA
-72.9283391,41.3212912,1,Connecticut 06511; USA
151.1883894,-33.8877655,12,New South Wales 2006; Australia
-122.4693688,38.2315738,4,California 95476; USA
-93.64803069999999,42.0288663,3,Iowa 50011; USA
-122.0723816,37.428434,16,California 94043; USA
-0.2421732,51.7528765,12,AL10 9AB; UK
-1.5718583,54.768139,1,DH1 3LE; UK
-1.5718583,54.768139,1,Durham DH1 3LE; UK
-155.7134009,20.0390812,3,96743; USA
5.715193999999999,43.910292,5,Saint-Michel l'Observatoire; France
-73.96243270000001,40.8138912,1,10027; USA
-2.7073842,53.7613383,1,PR1 2HE; England
-86.8066559,36.1457192,1,TN 37240; USA
18.9821804,47.4971726,2,H-1121; Hungary
7.570991899999999,47.5379528,1,CH-4102 Binningen; Switzerland
-78.4069732,38.0574127,1,VA 22911; USA
-121.88,37.34,45,CA 95192; USA
151.2092955,-33.8688197,13,Sydney; Australia
-86.2412543,41.7043332,1,46556-5670; USA
-76.944141,38.9908487,8,MD 20742-2421; USA
140.8721,38.2688373,1,Miyagi 980-0857; Japan
139.5222643,35.7101337,1,Tokyo 184-8584; Japan
-46.63330939999999,-23.5505199,1,SP; Brasil
18.0685808,59.32932349999999,3,SE-10691 Stockholm; Sweden
16.6030556,47.2577607,1,Szent Imre Herceg st. 112; Hungary
2.1104255,41.5010386,1,Carrer de Can Magrans S/N E-08193 Cerdanyola del Valles (Barcelona); Spain
127.3747104,36.3981875,10,Daejeon 305-348; Korea
-77.03053899999999,38.908229,1,DC 20005; USA
-119.4179324,36.778261,1,CA 947200-3411; USA
-122.2594606,37.87015100000001,1,CA 94720-4767; USA
-117.0382158,32.7381191,1,CA 91945; USA
-75.5812119,6.244203,6,Medellín; Colombia
-118.1247032,34.1378866,1,CA; 91125 USA
100.2658516,16.8211238,1,Phitsanulok 65000; Thailand
99.85714159999999,20.0077042,1,57100; Thailand
-111.8419536,40.7652201,7,UT 84112; USA
-73.5782648,45.5069623,8,QC H3A 2T8; Canada
-111.1652687,31.6898446,6,AZ 85645; USA
-117.669073,33.5796589,5,Dublin 4; Ireland
-87.962884,41.6729486,2,IL 60439; USA
13.6222937,52.3463706,10,D-15738 Zeuthen; Germany
-119.4179324,36.778261,1,CA 94307; USA
-86.9261008,40.4401775,6,IN 47907; USA
-122.0326019,37.6561165,1,CA 94542; USA
-9.0567905,53.270668,3,Galway; Ireland
12.9573975,52.40383809999999,2,D-14476 Potsdam-Golm; Germany
-91.54870989999999,41.659363,1,IA 52242; USA
-86.85899909999999,39.6394963,1,IN 46135-0037; USA
-84.398753,33.777444,3,GA 30332-0430; USA
8.7597451,49.4154874,3,D-69118 Heidelberg; Germany
-119.8496976,34.4135868,4,CA 93106-4030; USA
9.963474999999999,51.56655319999999,1,D-37077 Goettingen; Germany
12.5113741,55.7841732,2,DK-2800 Lyngby; Denmark
17.1888573,46.78148770000001,1,13-15; Hungary
10.9027636,49.8988135,6,Bamberg; Germany
-111.0937311,39.3209801,1,Utah; USA
-74.651754,40.3815302,1,Princeton NJ 08540; USA
-118.125269,34.1376576,2,NASA Sagan Fellow
151.1873473,-33.888584,9,University of Sydney 2006; Australia
9.2296929,45.47137,4,I-20133 Milano; Italy
-72.9310217,41.3064267,2,06520; USA
-118.2436849,34.0522342,2,Los Angeles CA 90095-1562; USA
21.0722665,52.212944,14,00-716 Warsaw; Poland
-1.9305135,52.4508168,5,University of Birmingham; UK
4.7002953,50.87795449999999,3,Katholieke Universiteit Leuven; Belgium
11.8704306,45.4003087,8,Padova IT-35122; Italy
22.5232338,60.42633249999999,5,FI-21500 PIIKKIÖ; Finland
-99.9018131,31.9685988,1,TX 75429-3011; USA
34.989571,32.7940463,5,Haifa 32000; Israel
34.78176759999999,32.0852999,3,69978 Tel-Aviv; Israel
-74.6568772,40.3467174,2,New Jersey 08544; USA
-83.01733860000002,39.9990626,1,Ohio 43210; USA
-119.8496976,34.4135868,4,California 93106; USA
16.3191645,48.2358641,1,Vienna 1180; Austria.
9.963474999999999,51.56655319999999,1,Göttingen 37077; Germany.
2.1457119,48.7072212,1,Gif-sur-Yvette Cedex 91191; France
-123.2611098,49.2684344,2,British Columbia V6T 1Z1; Canada
-106.31,35.89,3,Los Alamos; NM USA 87545
-106.7455792,32.2777551,1,Las Cruces; NM USA 88003
-81.89890799999999,26.5545224,5,Fort Myers; FL 33919 USA
-122.4894588,48.7562157,1,Bellingham; WA 98225
133.5823171,34.564242,1,Japan; 719-0232
136.9624604,35.15461070000001,1,Japan; 464-8601
135.7836835,35.030518,3,Japan; 606-8502
134.3402108,35.0347366,1,Japan; 679-5313
135.7935777,34.9927429,1,Japan; 607-8471
-71.11666009999999,42.3770029,4,Harvard University
-74.6514481,40.3439888,1,Princeton University
-72.92234309999999,41.3163244,1,Yale University
-16.6291304,28.2915637,10,Canary Islands; Spain
139.6423446,35.4475073,1,Kanagawa; Japan
-118.2892046,34.0220127,2,CA 90089-1341; USA
-122.3035199,47.65533509999999,2,NASA Astrobiology Institute—Virtual Planetary Laboratory Lead Team; USA
-82.4563199,27.926156,1,FL; 33606 USA
-82.8391552,34.680476,1,Clemson; SC 29634 USA
-122.2594606,37.87015100000001,1,Berkeley; CA 94720 USA
-82.371937,29.6130239,7,FL 32611-2055; USA
11.2580472,43.7437096,1,I-50125 Firenze; Italy
19.5033041,47.162494,1,PO. Box 148; Hungary
-3.9975566,40.4481075,2,E-28691 Villanueva de la Cañada (Madrid); Spain
7.276782999999999,43.69530229999999,4,F-06300 Nice; France
1.688438,43.476392,3,F-31450 Varennes; France
-155.7134009,20.0390812,2,HI 96743; USA
1.444209,43.604652,1,F-31028 Toulouse cedex 4; France
87.8549755,22.9867569,1,West Bengal; India
4.8719854,50.4673883,1,Namur; Belgium
38.2917651,55.340396,1,Moscow Region; Russia
-74.4056612,40.0583238,12,NJ 05844; USA
-77.623931,43.1318593,1,NY 14627-0171; USA
-98.2062727,19.0414398,2,Puebla; Mexico
-73.92128579999999,40.8721452,1,NY 10034; USA
-81.2634983,43.0085587,3,ON N6A 3K7; Canada
-122.1802812,37.3813444,1,CA 94304; USA
-117.0125641,46.7258512,4,ID 83844; USA
5.5628874,50.63507569999999,1,17 B-4000 Liege; Belgium
2.189617,48.697161,7,F-91405 Orsay; France
-121.7879244,37.7537708,2,CA 94551; USA
-73.9932872,40.755322,3,New York; NY 10018
4.4186238,52.214817,1,2201 AZ Noordwijk; The Netherlands
-2.7927522,56.3416934,1,University of St Andrews
-106.7455792,32.2777551,1,88003-8001; USA
-121.8993526,37.4323716,1,CA 95035; USA
-105.2077798,40.04065060000001,2,Boulder CO 80301; USA
14.1989038,40.864297,1,I-80131 Naples; Italy
10.39752,43.7193747,1,I-56126 Pisa; Italy
-155.4719335,19.8262299,1,Visiting Astronomer at the Infrared Telescope Facility at the University of Hawaii; USA
-3.435973,55.378051,1,United Kingdom
21.0722665,52.212944,3,PL-00-716 Warszawa; Poland
-123.3229396,48.4464362,2,BC V8P 5J2; Canada
4.3836284,51.1890846,1,B-2020 Antwerp; Belgium
18.6264694,-33.8812733,1,7535 Cape Town; South Africa
-86.5400674,37.1184213,2,KY 42101-1077; USA
113.3823545,34.2904302,1,Henan; China
-71.1032591,42.36475590000001,8,Massachusetts 02139; USA
-73.5436479,45.50232,1,Quebec H3C 3J7; Canada
-113.9842701,46.861557,1,Montana 59812; USA
151.229916,-33.916869,1,New South Wales 2052; Australia
19.9449799,50.06465009999999,2,Cracow; Poland
19.5033041,47.162494,3,Hungarian Astronomical Association (HAA); Hungary
139.6838764,35.6044669,3,Tokyo 152-8550; Japan
18.9642551,47.5000761,2,Konkoly Thege Miklós út 15-17. H-1121 Budapest; Hungary
117.227219,31.820591,1,Hefei 230026; China
9.4065471,45.6983647,2,Merate (LC); Italy
4.6958889,50.86260720000001,3,Heverlee; Belgium
10.2030118,56.1681384,3,Aarhus University; Denmark
151.1873473,-33.888584,2,University of Sydney; Australia
-2.7073842,53.7613383,6,PR1 2HE; UK
-81.6745517,36.216795,1,Boone; North Carolina (USA)
-110.9747108,32.2226066,1,Tucson; Arizona (USA)
-97.7340567,30.2849185,2,The University of Texas at Austin; USA
-80.621591,28.0600145,1,32901; USA
-155.2382164,19.7031566,1,96720-2700; USA
-79.0581498,35.905249,1,27599-3255; USA
-122.27,37.95,1,94820; USA
16.3342251,48.23139459999999,1,Institut für Astronomie der Universität Wien; Austria
2.180034,48.73668,3,IRFU/DSM/CEA; Saclay
-110.9492432,32.2345837,1,Department of German Studies; University of Vienna
-93.682608,42.0390586,4,IA 50014; USA
-77.899604,40.7984796,3,PA 16803; USA
-114.7420408,44.0682019,7,ID 83844-0903; USA
-77.1945247,41.2033216,1,PA-8512; USA
-97.73488049999999,30.2835151,1,TX-78712; USA
4.6958889,50.86260720000001,10,B-3001 Heverlee; Belgium
-90.3418927,38.9610901,1,Illinois 62028; USA
-1.3053221,51.4059153,2,NI; UK
-71.2220832,42.4609077,1,MA 02420; USA
-81.7622951,26.4588273,3,FL 33965; USA
-105.2407974,40.0182875,1,4750 Walnut street Suite 205 Boulder; CO 80301 USA
2.0910377,41.49733519999999,1,s/n E-08193 Cerdanyola del Valls; Spain
-79.4916555,43.7638,1,ON M3J 1P2; Canada
-70.6692655,-33.4488897,1,Santiago 19001; Chile
-122.2594606,37.87015100000001,1,Berkeley CA 94720-7450; USA
-43.2260955,-22.8949877,5,RJ - 20921-400; Brazil
-97.3617845,32.7087439,1,76129; USA
16.6030556,47.2577607,3,Szent Imre herceg st. 112; Hungary
-83.7146001,42.2660881,3,MI 48104; USA
17.5833218,48.3709108,2,91724 Trnava; Slovak Republic
2.0910377,41.49733519999999,1,s/n E-08193 Cerdanyola del Vallés; Spain
149.1300092,-35.2809368,2,Canberra; Australia
-117.072053,32.7759882,1,92182-1221; United States
118.796877,32.060255,1,Nanjing; China
-79.39565640000001,43.6628917,2,University of Toronto; Canada
-46.7329875,-23.559858,3,SP 05508-090; Brazil
-35.2450647,-5.8356827,1,Natal 59072-970; Brazil
-104.0072348,30.7713229,3,TX 79734-3005; USA
16.3191645,48.2358641,16,1180 Vienna; Austria
-99.0972012,40.7019349,1,NE 68849; USA
-119.6981901,34.4208305,1,Santa Barbara; USA
-35.200916,-5.7792569,12,Natal RN; Brazil
-79.3845675,43.65057119999999,1,ON M5H 3H8; Canada
-2.970721,56.462018,1,Dundee; UK
17.085677,51.111371,1,Kopernika 11; 51-622 Wrocław
-35.2024819,-5.8486753,2,59078-970 Natal; Brazil
-76.8524228,38.9917856,2,NASA Goddard Space Flight Center (GSFC); USA
14.4500077,50.1152199,4,V Holešovičkách 2; Czech Republic
14.4689536,50.1239503,2,Na Slovance 1999/2; Czech Republic
19.8968991,50.0790939,5,30-084 Kraków; Poland
17.6389267,59.85856380000001,2,SE-75120 Uppsala; Sweden
-3.1878622,55.92320110000001,1,Edinburgh; EH93HJ
11.4040792,47.269258,1,A-6020 Innsbruck; Austria
-82.7715486,37.6656527,1,Prestonsburg; KY
-86.92119459999999,40.4237054,2,Purdue University
-74.197388,40.7383636,1,NJ 07103; USA
139.5364976,35.67533,1,Mitaka; Tokyo 181-8588.
11.6532477,48.2488721,2,D-85740 Garching; Germany
8.541694,47.3768866,5,Zürich; Switzerland
-0.22309,51.763366,2,Hatfield; UK
-71.3824374,42.4072107,8,MA 02159; USA
-85.49297849999999,32.5909562,1,AL 36849; USA
117.9249002,30.6006773,2,Anhui 230026; China
-76.4794435,43.4244918,2,NY 13126; USA
-76.9425543,38.9869183,2,Maryland 20742-2421; USA
-86.2412543,41.7043332,2,Indiana 46556; USA
-122.2585399,37.8718992,2,California 94720-3411; USA
10.2030118,56.1681384,4,Stellar Astrophysics Centre; Aarhus University
-117.0702349,32.7765074,1,Department of Astronomy; San Diego State University
-76.6205177,39.3299013,1,Johns Hopkins University
126.9501786,37.5643079,1,Ewha Womans University
-83.03091429999999,40.0141905,1,The Ohio State University
-83.0123514,40.0024878,1,Department of Astronomy; Ohio State University
8.6881101,49.41775,1,Zentrum für Astronomie der Universität Heidelberg
10.199278,56.167314,1,Department of Physics and Astronomy; Aarhus University
-72.923434,41.3154396,1,Department of Astronomy; Yale University
-43.2229971,-22.8959564,1,LIneA - Laboratório Interdepartamental de e-Astronomia
11.8859197,45.409218,2,Dipartimento di Fisica e Astronomia; Università di Padova
-86.8064447,33.5021227,2,University of Birmingham
13.7750606,45.6798192,1,SISSA
11.8685877,45.4019014,1,INAF - Osservatorio Astronomico di Padova
-83.0123192,40.0024467,1,McPherson Laboratory; The Ohio State University
-117.0718893,32.77572170000001,3,San Diego State University
-73.9964609,40.72951339999999,1,New York University
-122.0582771,36.9915847,4,University of California; Santa Cruz
-75.18994409999999,39.9566127,1,Drexel University
-77.3114889,38.8314936,1,George Mason University
-0.1857885,51.480023,1,HJ; UK
-17.7724671,28.6412969,3,Brea Baja; Spain
-155.6716667,20.0230556,1,Kamuela; USA
11.8774462,45.406766,1,Universita di Padova; Italy
-80.85,33.5,2,SC 29117; USA
-110.946938,32.2021,11,AZ 85726; USA
20.2822798,49.16449919999999,2,059 60 Tatranska Lomnica; Slovak Republic
-86.5602614,34.6152142,1,AL 35803; United States of America
-122.2964235,47.6087583,2,WA 98122; USA
9.963474999999999,51.56655319999999,1,D-37077 Gottingen; Germany
126.9779692,37.566535,1,Seoul; Korea
-81.6089873,41.5091257,2,OH 44106-7215; USA
-4.2883597,55.87175149999999,3,Glasgow G12 8QQ; UK
2.23847,48.812995,1,UMR 8109 F-92195 Meudon; France
5.159771,44.020938,1,Mallemort-du-Comtat; France
5.715193999999999,43.910292,1,St.-Michel-l'Observatoire; France
-7.8551086,31.19477729999999,1,Oukaimeden; Morocco
0.240385,47.167296,2,Chinon; France
4.922661,45.782029,3,Vaulx-en-Velin; France
1.933481,42.902882,1,Bélesta; France
3.936612,43.644825,1,Le Cres; France
5.198983999999999,44.03037700000001,1,Blauvac; France
5.325798,45.027882,1,St. Laurent en Royans; France
-119.4179324,36.778261,3,CA 90095-1547; USA
-77.06652,38.9212612,2,DC 20392; USA
-117.8421325,33.6471239,3,92697; USA
-121.6397184,37.385095,3,CA 95140; USA
-121.7765309,38.5474428,1,CA 95616; USA
-78.5887951,38.0335948,4,VA 22903; USA
-117.1400471,32.8015902,1,CA 92193; USA
-77.8599084,40.7982133,1,Pennsylvania State University; USA
-72.92234309999999,41.3163244,1,Yale University; USA
-1.2594327,51.7593038,5,Keble Road; Oxford OX1 3RH
-37.3477805,-5.1841285,2,Mossoró-RN; Brazil
-35.200916,-5.7792569,1,Natal-RN; Brazil
11.8685877,45.4019014,1,INAF-Osservatorio Astronomico di Padova; Italy
13.3543969,38.1116229,1,90134; Italy
10.0936577,51.6510486,6,Katlenburg-Lindau; Germany
-116.5963713,31.8667427,1,Ensenada; Mexico
-110.9473242,32.2334747,11,National Optical Astronomy Observatory; which is operated by the Association of Universities for Research in Astronomy (AURA) under cooperative agreement with the National Science Foundation.
151.1873473,-33.888584,2,University of Sydney NSW 2006; Australia
-122.3084023,47.6508882,1,Seattle; Washington 98195
5.5796662,50.6325574,1,Liége 1; Belgium
4.835659,45.764043,1,F-69364 Lyon; France
-122.31,47.6599999,1,WA 98145-1561; USA
5.559063999999999,50.5830803,1,University of Liege; Belgium
-63.5817947,44.6311305,6,B3H 3C3; Canada
18.5984437,53.0137902,5,PL-87-100 Torun; Poland
10.553659,50.682357,1,D-98587 Herges-Hallenberg; Germany
11.6024872,50.96389749999999,5,D-07743 Jena; Germany
8.74087,50.3248933,1,D-61169 Friedberg; Germany
21.9078917,48.932454,6,Humenne; Slovakia
5.1962097,51.2213789,3,2400 Mol; Belgium
-4.0966435,51.5960103,3,SA2 7LE; UK
140.7636435,38.2575482,1,Miyagi 989-3123; Japan
-2.8931113,52.2519638,2,HR6 9NG; UK
129.882018,32.7543797,1,Nagasaki 850-0006; Japan
7.6485345,47.5236348,3,CH-4132 Muttenz; Switzerland
139.99086,35.7777923,1,Chiba 273-0126; Japan
133.9287749,34.6967188,2,Okayama 700-0005; Japan
-6.9447224,37.261421,2,Huelva; Spain
137.5864964,35.8839432,4,Nagano 397-0101; Japan
21.6779967,-33.5276391,1,Calitzdorp 6660; South Africa
34.102417,44.952117,20,Crimea; Ukraine
-3.8099803,43.46230569999999,1,Santander; Spain
-77.6421577,43.0915814,2,NY 14623; USA
25.7415729,62.2881368,3,FI-40270 Palokka; Finland
1.2499803,52.8332008,2,NR11 7QX; UK
20.2822798,49.16449919999999,2,Tatranska Lomnica; the Slovak Republic
13.336405,41.5698647,5,03023 Ceccano (FR); Italy
7.065449399999999,49.220675,2,66132 Saarbrücken; Germany
115.7456852,-31.7998382,3,Western Australia 6025; Australia
145.9247217,-38.2555216,2,Ellinbank 3820; Australia
-87.84515270000001,42.1272261,2,IL 60062; USA
-111.1093053,45.6395115,3,MT 59718; USA
-120.7809676,38.4332877,3,CA 95685; USA
-106.7706458,32.6111999,3,NM 88012; USA
-116.6229069,31.8687051,3,22800 Ensenada B.C.; México
-81.71305219999999,28.5366442,2,FL 34711; USA
37.6172999,55.755826,13,Moscow 119992; Russia
25.4662935,65.0593177,1,FIN-90014 University of Oulu; Finland
-105.1726816,33.0832841,1,NM 88339; USA
19.8236697,50.05354,4,ul. Orla 171 30-244 Kraków; Poland
3.045871,50.39024200000001,3,59553 Lauwin Planque; France
138.6163371,-34.8899195,1,South Australia 5081; Australia
140.8493471,38.2651682,1,Miyagi 980-0874; Japan
146.7552341,-19.2878252,1,Queensland 4814; Australia
30.5234,50.4501,1,03680 Kiev; Ukraine
43.5629241,43.3933066,2,Kabardino-Balkaria; Russia
49.1214925,55.7909325,1,420008; Russia
138.4362607,36.2996965,1,Nagano 384-0085; Japan
16.5739687,49.167445,1,625 00 Brno; Czech Republic
139.2664018,35.6740047,1,Tokyo 192-0153; Japan
140.8753286,38.2731578,1,Miyagi 980-0011; Japan
136.7901815,35.2490968,1,Aichi 492-8217; Japan
140.3327354,38.2378587,1,Yamagata 990-2492; Japan
-3.5016452,40.5964617,1,28110 Algete/Madrid; Spain
4.8637725,50.836198,1,Moffelstraat 13 3370 Boutersem; Belgium
-71.1281079,42.38144519999999,2,avanderburg@cfa.harvard.edu
-3.9980485,40.4539502,3,28691; Spain
-118.1528623,34.1561783,3,91109; USA
-98.4842465,39.011902,5,KS 66045-7582; USA
-123.2611098,49.2684344,1,B.C. V6T 1Z1; Canada
-111.0937311,34.0489281,1,AZ 88287-6004; USA
-0.527552,44.8305549,7,F-33270 Floirac; France
5.724524,45.188529,4,Grenoble F-38041; France
-78.6568942,37.4315734,1,VA 23681-2199; USA
-3.0184011,53.3990743,1,Birkenhead CH41 1LD; UK
-58.44227009999999,-34.5419202,1,FCEN-Universidad de Buenos Aires 1428; Argentina
-58.3815591,-34.6036844,2,C1428EHA - Buenos Aires; Argentina
-122.2594606,37.87015100000001,1,California 94720; USA.
-74.651754,40.3815302,1,New Jersey 08540; USA.
17.2508787,49.593778,7,771 46 Olomouc; Czech Republic
-77.8638835,40.8084075,3,University Park; PA 16802
-122.2594606,37.87015100000001,4,Berkeley; CA 94720
-157.8152491,21.3175493,1,Honolulu; HI 96822
-122.2585399,37.8718992,2,University of California; Berkeley
-2.4637136,36.834047,3,Almería; Spain
-99.133208,19.4326077,1,D.F; Mexico
-70.6692655,-33.4488897,1,D Santiago; Chile
-118.124268,34.138704,1,Kavli Fellow.
-118.125269,34.1376576,7,Sagan Fellow.
13.0665558,52.39976910000001,1,Potsdam D-14467; Germany
-73.5711912,40.7452159,1,NY 11590; USA
73.8196158,18.5541728,8,Pune 411007; India
-122.0582771,36.9915847,1,IL 95064; USA
-155.5827818,19.8967662,3,HI 96822-1839; USA
16.6124116,47.2295718,2,Károlyi Gáspár tér 4; Hungary
-44.5550308,-18.512178,1,MG; Brazil
-97.73488049999999,30.2835151,2,TX 78712-1083; USA
-57.95502029999999,-34.9168978,1,1900 La Plata; Argentina
-0.527552,44.8305549,1,F-BP89 33271 Floirac Cedex; France
25.2692084,54.692348,1,Vilnius LT-01108; Lithuania
4.3515499,50.8427501,2,B-1000 Bruxelles; Belgium
-17.7724671,28.6412969,3,E-38712 Brea Baja; Spain
-105.2889726,40.0103247,1,Boulder CO 80309; USA
4.955726299999999,52.35581819999999,2,University of Amsterdam; The Netherlands
14.4674187,50.1091754,1,CZ-18000 Prague 8; Czech Republic
-8.6393579,41.1502012,1,4150-762 Oporto; Portugal
-74.0059728,40.7127753,4,NY 14583; USA
-79.3981142,43.6608838,1,M5S3H8; Canada
-8.657261,40.6335476,1,3810-193 Aveiro; Portugal
-95.712891,37.09024,2,USA.
-87.6759889,42.0541119,1,IL 60208; USA.
28.2292712,-25.7478676,1,0003 Pretoria; South Africa
-73.0443904,-36.8201352,1,C Concepción; Chile
-95.712891,37.09024,1,NY14853-6801; USA
-105.2077798,40.04065060000001,1,CO 80301; USA.
145.0328017,-37.8222114,1,VIC 3122; Australia
-118.125269,34.1376576,1,Carl Sagan Fellow.
21.0122287,52.2296756,7,Warsaw; Poland
-118.125269,34.1376576,2,NASA Sagan Fellow.
8.5079308,47.4079311,1,8093 Zürich; Switzerland
21.0722665,52.212944,1,PL 00-716 Warsaw; Poland
18.9642551,47.5000761,2,Konkoly Thege Miklós út 15-17 H-1525 Budapest; Hungary
-71.1281079,42.38144519999999,1,Harvard-Smithsonian Center for Astrophysics
-0.0513246,39.9863563,1,E-12006 Castellón de la Plana; Spain
1.39592,48.489577,4,F-28300 Bailleau l'Evêque; France
-84.4796047,42.724305,1,MI 48824; USA
1.499573,43.51562999999999,1,Castanet-Tolosan; France
5.629559,44.0379409,2,F-04150 Banon; France
140.1022377,36.0668503,1,Ibaraki 305-0035; Japan
-0.139608,51.50857629999999,1,London; W1J 0DU
-3.7003632,40.4765501,1,E-28029 Madrid; Spain
13.5841871,42.0784862,1,I-67041 Aielli (AQ); Italy
-70.6692655,-33.4488897,1,Casilla 36-D Santiago; Chile
-118.1247032,34.1378866,1,Pasadena CA 91125; USA
-86.75233999999999,34.66517,4,AL 35812; USA
-94.70188999999999,39.0234301,1,KS 66203; USA
-72.88176,40.86661,1,NY 11973; USA
-106.346771,56.130366,1,Postdoctoral fellow of the Canadian Astrobiology Training Program.
2.3815815,48.8300812,1,Université Paris Diderot; France
149.0104742,-35.3161616,1,Mont Stromlo; Australia
4.340669999999999,50.8023982,2,Ukkel; Belgium
1.065273,51.2981936,1,CT2 7NH; UK
-3.435973,55.378051,2,B13 2TT; UK
-157.7019881,21.2962334,1,96825; USA
5.767761,45.165133,1,Saint Martin d'Hères; France
-101.7068294,19.5665192,1,Michoacàn; Mexico
2.2265084,48.80556929999999,6,F-92195 Meudon cedex; France
-74.82146929999999,40.2697068,8,NJ 08628; USA
-86.2366507,41.7015402,1,AZ 85719; USA and JINA: Joint Institute for Nuclear Astrophysics
-110.9488008,32.2332841,1,AZ 85721-0063; USA
118.805374,32.0580882,2,Chinese Academy of Sciences; Nanjing 210008
135.7836835,35.030518,13,Sakyo-ku; Kyoto 606-8502
135.7935777,34.9927429,4,Yamashina-ku; Kyoto 607-8471
133.9287749,34.6967188,10,Okayama; Okayama 700-0005
-105.8700901,34.5199402,2,NM 83117; USA
-6.6691579,37.9536331,1,21071 Huelva; Spain
135.6495995,34.5508667,10,Kashiwara; Osaka 582-8582
138.9505159,36.6170007,5,Agatsuma; Gunma 377-0702
139.99086,35.7777923,1,Kamagaya; Chiba 273-0126
25.7472567,62.2426034,1,FI-40101 Jyväskylä; Finland
20.2822798,49.16449919999999,3,Tatranska Lomnica; The Slovak Republic
129.882018,32.7543797,2,Nagasaki; Nagasaki 850-0006
136.7901815,35.2490968,1,Inazawa; Aichi 492-8217
139.2664018,35.6740047,2,Hachioji; Tokyo 192-0153
0.494076,51.745257,1,CM1 6JL; UK
-1.4704598,51.5937488,2,OX12 9TX; UK
139.5733098,35.7114768,2,Musashino; Tokyo 180-8633
136.0706289,33.9707435,1,Kumano; Mie 519-4673
-85.0441304,41.35481009999999,2,IN 46706; USA
-2.7560196,54.0295503,1,LA2 0RQ; UK
149.219061,-31.2733434,1,Coonabarabran NSW 2357; Australia
140.3327354,38.2378587,2,Yamagata; Yamagata 990-2492
138.002886,34.7816997,1,Kakegawa; Shizuoka 436-0049
4.834709999999999,50.84109,1,3370 Boutersem; Belgium
-2.6580609,53.1189386,2,CW6 9NR; UK
-1.8734797,52.5456022,1,B44 0QE; UK
-3.6947318,40.463976,1,2F 28029 Madrid; Spain
135.7935777,34.9927429,7,Yamashina; Kyoto 607-8471
135.7836835,35.030518,2,Sakyo; Kyoto 606-8502
134.3402108,35.0347366,3,Sayo; Hyogo 679-5313
137.5864964,35.8839432,3,Kiso-gun; Nagano 397-0101
136.9624604,35.15461070000001,1,Chikusa-ku; Nagoya 464-8601
139.7600967,35.7088306,2,Bunkyo-ku; Tokyo 113-0033
12.7152505,41.8181871,2,Monteporzio C.; Italy
-84.39999999999999,33.75,1,30302-5060; USA
-119.8496976,34.4135868,16,93106-4030; USA
2.189617,48.697161,1,Orsay; France
-82.36247,36.30409,2,TN 37614; USA
-95.089998,29.5593451,13,NASA Postdoctoral Program Fellow.
10.0936577,51.6510486,5,D-37191 Katlenburg-Lindau; Germany
5.36978,43.296482,5,F-13388 Marseille cedex 13; France
